[
    {
        "bssid": "7C:05:07:58:0D:79", 
        "source": "00:24:14:60:5F:D9", 
        "time_sec": 1416057405, 
        "time_usec": 605505, 
        "lat": 51.787163, 
        "lon": 19.44804, 
        "spd": 0.972, 
        "heading": 0.0, 
        "fix": 3, 
        "alt": 202.399994, 
        "hdop": 0.0, 
        "vdop": 0.0, 
        "signal_rssi": 0, 
        "noise_rssi": 0, 
        "signal_dbm": "108", 
        "noise_dbm": "0"
    }, 
    {
        "bssid": "7C:05:07:58:0D:79", 
        "source": "00:24:14:60:5F:D9", 
        "time_sec": 1416057405, 
        "time_usec": 618117, 
        "lat": 51.787163, 
        "lon": 19.44804, 
        "spd": 0.972, 
        "heading": 0.0, 
        "fix": 3, 
        "alt": 202.399994, 
        "hdop": 0.0, 
        "vdop": 0.0, 
        "signal_rssi": 0, 
        "noise_rssi": 0, 
        "signal_dbm": "108", 
        "noise_dbm": "0"
    }, 
    {
        "bssid": "3E:46:08:BA:30:DC", 
        "source": "30:A8:DB:33:85:BD", 
        "time_sec": 1416057405, 
        "time_usec": 791579, 
        "lat": 51.787178, 
        "lon": 19.448088, 
        "spd": 0.972, 
        "heading": 0.0, 
        "fix": 3, 
        "alt": 198.699997, 
        "hdop": 0.0, 
        "vdop": 0.0, 
        "signal_rssi": 0, 
        "noise_rssi": 0, 
        "signal_dbm": "-128", 
        "noise_dbm": "0"
    }, 
    {
        "bssid": "3E:46:08:BA:30:DC", 
        "source": "30:A8:DB:33:85:BD", 
        "time_sec": 1416057405, 
        "time_usec": 801983, 
        "lat": 51.787178, 
        "lon": 19.448088, 
        "spd": 0.972, 
        "heading": 0.0, 
        "fix": 3, 
        "alt": 198.699997, 
        "hdop": 0.0, 
        "vdop": 0.0, 
        "signal_rssi": 0, 
        "noise_rssi": 0, 
        "signal_dbm": "-128", 
        "noise_dbm": "0"
    }, 
    {
        "bssid": "3E:46:08:BA:30:DC", 
        "source": "30:A8:DB:33:85:BD", 
        "time_sec": 1416057405, 
        "time_usec": 810427, 
        "lat": 51.787178, 
        "lon": 19.448088, 
        "spd": 0.972, 
        "heading": 0.0, 
        "fix": 3, 
        "alt": 198.699997, 
        "hdop": 0.0, 
        "vdop": 0.0, 
        "signal_rssi": 0, 
        "noise_rssi": 0, 
        "signal_dbm": "-128", 
        "noise_dbm": "0"
    }, 
    {
        "bssid": "00:26:18:51:51:89", 
        "source": "00:24:14:60:5F:D9", 
        "time_sec": 1416057407, 
        "time_usec": 218935, 
        "lat": 51.787189, 
        "lon": 19.448116, 
        "spd": 0.972, 
        "heading": 0.0, 
        "fix": 3, 
        "alt": 195.699997, 
        "hdop": 0.0, 
        "vdop": 0.0, 
        "signal_rssi": 0, 
        "noise_rssi": 0, 
        "signal_dbm": "-123", 
        "noise_dbm": "0"
    }, 
    {
        "bssid": "E0:CB:4E:52:30:5C", 
        "source": "00:24:14:60:5F:D9", 
        "time_sec": 1416057407, 
        "time_usec": 305927, 
        "lat": 51.787189, 
        "lon": 19.448116, 
        "spd": 0.972, 
        "heading": 0.0, 
        "fix": 3, 
        "alt": 195.699997, 
        "hdop": 0.0, 
        "vdop": 0.0, 
        "signal_rssi": 0, 
        "noise_rssi": 0, 
        "signal_dbm": "-123", 
        "noise_dbm": "0"
    }, 
    {
        "bssid": "00:26:18:51:51:89", 
        "source": "00:24:14:60:5F:D9", 
        "time_sec": 1416057407, 
        "time_usec": 388683, 
        "lat": 51.787189, 
        "lon": 19.448116, 
        "spd": 0.972, 
        "heading": 0.0, 
        "fix": 3, 
        "alt": 195.699997, 
        "hdop": 0.0, 
        "vdop": 0.0, 
        "signal_rssi": 0, 
        "noise_rssi": 0, 
        "signal_dbm": "-123", 
        "noise_dbm": "0"
    }, 
    {
        "bssid": "3E:46:08:BA:30:DC", 
        "source": "30:A8:DB:33:85:BD", 
        "time_sec": 1416057407, 
        "time_usec": 477665, 
        "lat": 51.787189, 
        "lon": 19.448116, 
        "spd": 0.972, 
        "heading": 0.0, 
        "fix": 3, 
        "alt": 195.699997, 
        "hdop": 0.0, 
        "vdop": 0.0, 
        "signal_rssi": 0, 
        "noise_rssi": 0, 
        "signal_dbm": "-123", 
        "noise_dbm": "0"
    }, 
    {
        "bssid": "3E:46:08:BA:30:DC", 
        "source": "30:A8:DB:33:85:BD", 
        "time_sec": 1416057407, 
        "time_usec": 477726, 
        "lat": 51.787189, 
        "lon": 19.448116, 
        "spd": 0.972, 
        "heading": 0.0, 
        "fix": 3, 
        "alt": 195.699997, 
        "hdop": 0.0, 
        "vdop": 0.0, 
        "signal_rssi": 0, 
        "noise_rssi": 0, 
        "signal_dbm": "-123", 
        "noise_dbm": "0"
    }, 
    {
        "bssid": "3E:46:08:BA:30:DC", 
        "source": "30:A8:DB:33:85:BD", 
        "time_sec": 1416057407, 
        "time_usec": 477743, 
        "lat": 51.787189, 
        "lon": 19.448116, 
        "spd": 0.972, 
        "heading": 0.0, 
        "fix": 3, 
        "alt": 195.699997, 
        "hdop": 0.0, 
        "vdop": 0.0, 
        "signal_rssi": 0, 
        "noise_rssi": 0, 
        "signal_dbm": "-123", 
        "noise_dbm": "0"
    }, 
    {
        "bssid": "3E:46:08:BA:30:DC", 
        "source": "30:A8:DB:33:85:BD", 
        "time_sec": 1416057407, 
        "time_usec": 477758, 
        "lat": 51.787189, 
        "lon": 19.448116, 
        "spd": 0.972, 
        "heading": 0.0, 
        "fix": 3, 
        "alt": 195.699997, 
        "hdop": 0.0, 
        "vdop": 0.0, 
        "signal_rssi": 0, 
        "noise_rssi": 0, 
        "signal_dbm": "-123", 
        "noise_dbm": "0"
    }, 
    {
        "bssid": "3E:46:08:BA:30:DC", 
        "source": "30:A8:DB:33:85:BD", 
        "time_sec": 1416057407, 
        "time_usec": 477771, 
        "lat": 51.787189, 
        "lon": 19.448116, 
        "spd": 0.972, 
        "heading": 0.0, 
        "fix": 3, 
        "alt": 195.699997, 
        "hdop": 0.0, 
        "vdop": 0.0, 
        "signal_rssi": 0, 
        "noise_rssi": 0, 
        "signal_dbm": "-123", 
        "noise_dbm": "0"
    }, 
    {
        "bssid": "3E:46:08:BA:30:DC", 
        "source": "30:A8:DB:33:85:BD", 
        "time_sec": 1416057407, 
        "time_usec": 477785, 
        "lat": 51.787189, 
        "lon": 19.448116, 
        "spd": 0.972, 
        "heading": 0.0, 
        "fix": 3, 
        "alt": 195.699997, 
        "hdop": 0.0, 
        "vdop": 0.0, 
        "signal_rssi": 0, 
        "noise_rssi": 0, 
        "signal_dbm": "-123", 
        "noise_dbm": "0"
    }, 
    {
        "bssid": "3E:46:08:BA:30:DC", 
        "source": "30:A8:DB:33:85:BD", 
        "time_sec": 1416057407, 
        "time_usec": 477819, 
        "lat": 51.787189, 
        "lon": 19.448116, 
        "spd": 0.972, 
        "heading": 0.0, 
        "fix": 3, 
        "alt": 195.699997, 
        "hdop": 0.0, 
        "vdop": 0.0, 
        "signal_rssi": 0, 
        "noise_rssi": 0, 
        "signal_dbm": "-123", 
        "noise_dbm": "0"
    }, 
    {
        "bssid": "3E:46:08:BA:30:DC", 
        "source": "30:A8:DB:33:85:BD", 
        "time_sec": 1416057407, 
        "time_usec": 477832, 
        "lat": 51.787189, 
        "lon": 19.448116, 
        "spd": 0.972, 
        "heading": 0.0, 
        "fix": 3, 
        "alt": 195.699997, 
        "hdop": 0.0, 
        "vdop": 0.0, 
        "signal_rssi": 0, 
        "noise_rssi": 0, 
        "signal_dbm": "-123", 
        "noise_dbm": "0"
    }, 
    {
        "bssid": "3E:46:08:BA:30:DC", 
        "source": "30:A8:DB:33:85:BD", 
        "time_sec": 1416057407, 
        "time_usec": 478301, 
        "lat": 51.787189, 
        "lon": 19.448116, 
        "spd": 0.972, 
        "heading": 0.0, 
        "fix": 3, 
        "alt": 195.699997, 
        "hdop": 0.0, 
        "vdop": 0.0, 
        "signal_rssi": 0, 
        "noise_rssi": 0, 
        "signal_dbm": "-123", 
        "noise_dbm": "0"
    }, 
    {
        "bssid": "3E:46:08:BA:30:DC", 
        "source": "30:A8:DB:33:85:BD", 
        "time_sec": 1416057407, 
        "time_usec": 478322, 
        "lat": 51.787189, 
        "lon": 19.448116, 
        "spd": 0.972, 
        "heading": 0.0, 
        "fix": 3, 
        "alt": 195.699997, 
        "hdop": 0.0, 
        "vdop": 0.0, 
        "signal_rssi": 0, 
        "noise_rssi": 0, 
        "signal_dbm": "-123", 
        "noise_dbm": "0"
    }, 
    {
        "bssid": "3E:46:08:BA:30:DC", 
        "source": "30:A8:DB:33:85:BD", 
        "time_sec": 1416057407, 
        "time_usec": 478333, 
        "lat": 51.787189, 
        "lon": 19.448116, 
        "spd": 0.972, 
        "heading": 0.0, 
        "fix": 3, 
        "alt": 195.699997, 
        "hdop": 0.0, 
        "vdop": 0.0, 
        "signal_rssi": 0, 
        "noise_rssi": 0, 
        "signal_dbm": "-123", 
        "noise_dbm": "0"
    }, 
    {
        "bssid": "3E:46:08:BA:30:DC", 
        "source": "30:A8:DB:33:85:BD", 
        "time_sec": 1416057407, 
        "time_usec": 479125, 
        "lat": 51.787189, 
        "lon": 19.448116, 
        "spd": 0.972, 
        "heading": 0.0, 
        "fix": 3, 
        "alt": 195.699997, 
        "hdop": 0.0, 
        "vdop": 0.0, 
        "signal_rssi": 0, 
        "noise_rssi": 0, 
        "signal_dbm": "-123", 
        "noise_dbm": "0"
    }, 
    {
        "bssid": "3E:46:08:BA:30:DC", 
        "source": "30:A8:DB:33:85:BD", 
        "time_sec": 1416057407, 
        "time_usec": 479144, 
        "lat": 51.787189, 
        "lon": 19.448116, 
        "spd": 0.972, 
        "heading": 0.0, 
        "fix": 3, 
        "alt": 195.699997, 
        "hdop": 0.0, 
        "vdop": 0.0, 
        "signal_rssi": 0, 
        "noise_rssi": 0, 
        "signal_dbm": "-123", 
        "noise_dbm": "0"
    }, 
    {
        "bssid": "3E:46:08:BA:30:DC", 
        "source": "30:A8:DB:33:85:BD", 
        "time_sec": 1416057407, 
        "time_usec": 479154, 
        "lat": 51.787189, 
        "lon": 19.448116, 
        "spd": 0.972, 
        "heading": 0.0, 
        "fix": 3, 
        "alt": 195.699997, 
        "hdop": 0.0, 
        "vdop": 0.0, 
        "signal_rssi": 0, 
        "noise_rssi": 0, 
        "signal_dbm": "-123", 
        "noise_dbm": "0"
    }, 
    {
        "bssid": "3E:46:08:BA:30:DC", 
        "source": "30:A8:DB:33:85:BD", 
        "time_sec": 1416057407, 
        "time_usec": 479163, 
        "lat": 51.787189, 
        "lon": 19.448116, 
        "spd": 0.972, 
        "heading": 0.0, 
        "fix": 3, 
        "alt": 195.699997, 
        "hdop": 0.0, 
        "vdop": 0.0, 
        "signal_rssi": 0, 
        "noise_rssi": 0, 
        "signal_dbm": "-123", 
        "noise_dbm": "0"
    }, 
    {
        "bssid": "3E:46:08:BA:30:DC", 
        "source": "30:A8:DB:33:85:BD", 
        "time_sec": 1416057407, 
        "time_usec": 479729, 
        "lat": 51.787189, 
        "lon": 19.448116, 
        "spd": 0.972, 
        "heading": 0.0, 
        "fix": 3, 
        "alt": 195.699997, 
        "hdop": 0.0, 
        "vdop": 0.0, 
        "signal_rssi": 0, 
        "noise_rssi": 0, 
        "signal_dbm": "-123", 
        "noise_dbm": "0"
    }, 
    {
        "bssid": "3E:46:08:BA:30:DC", 
        "source": "30:A8:DB:33:85:BD", 
        "time_sec": 1416057407, 
        "time_usec": 480253, 
        "lat": 51.787189, 
        "lon": 19.448116, 
        "spd": 0.972, 
        "heading": 0.0, 
        "fix": 3, 
        "alt": 195.699997, 
        "hdop": 0.0, 
        "vdop": 0.0, 
        "signal_rssi": 0, 
        "noise_rssi": 0, 
        "signal_dbm": "-123", 
        "noise_dbm": "0"
    }, 
    {
        "bssid": "3E:46:08:BA:30:DC", 
        "source": "30:A8:DB:33:85:BD", 
        "time_sec": 1416057407, 
        "time_usec": 480784, 
        "lat": 51.787189, 
        "lon": 19.448116, 
        "spd": 0.972, 
        "heading": 0.0, 
        "fix": 3, 
        "alt": 195.699997, 
        "hdop": 0.0, 
        "vdop": 0.0, 
        "signal_rssi": 0, 
        "noise_rssi": 0, 
        "signal_dbm": "-123", 
        "noise_dbm": "0"
    }, 
    {
        "bssid": "3E:46:08:BA:30:DC", 
        "source": "30:A8:DB:33:85:BD", 
        "time_sec": 1416057407, 
        "time_usec": 481323, 
        "lat": 51.787189, 
        "lon": 19.448116, 
        "spd": 0.972, 
        "heading": 0.0, 
        "fix": 3, 
        "alt": 195.699997, 
        "hdop": 0.0, 
        "vdop": 0.0, 
        "signal_rssi": 0, 
        "noise_rssi": 0, 
        "signal_dbm": "-123", 
        "noise_dbm": "0"
    }, 
    {
        "bssid": "3E:46:08:BA:30:DC", 
        "source": "30:A8:DB:33:85:BD", 
        "time_sec": 1416057407, 
        "time_usec": 481800, 
        "lat": 51.787189, 
        "lon": 19.448116, 
        "spd": 0.972, 
        "heading": 0.0, 
        "fix": 3, 
        "alt": 195.699997, 
        "hdop": 0.0, 
        "vdop": 0.0, 
        "signal_rssi": 0, 
        "noise_rssi": 0, 
        "signal_dbm": "-123", 
        "noise_dbm": "0"
    }, 
    {
        "bssid": "3E:46:08:BA:30:DC", 
        "source": "30:A8:DB:33:85:BD", 
        "time_sec": 1416057407, 
        "time_usec": 484429, 
        "lat": 51.787189, 
        "lon": 19.448116, 
        "spd": 0.972, 
        "heading": 0.0, 
        "fix": 3, 
        "alt": 195.699997, 
        "hdop": 0.0, 
        "vdop": 0.0, 
        "signal_rssi": 0, 
        "noise_rssi": 0, 
        "signal_dbm": "-123", 
        "noise_dbm": "0"
    }, 
    {
        "bssid": "3E:46:08:BA:30:DC", 
        "source": "30:A8:DB:33:85:BD", 
        "time_sec": 1416057408, 
        "time_usec": 161969, 
        "lat": 51.787201, 
        "lon": 19.448145, 
        "spd": 0.972, 
        "heading": 0.0, 
        "fix": 3, 
        "alt": 192.699997, 
        "hdop": 0.0, 
        "vdop": 0.0, 
        "signal_rssi": 0, 
        "noise_rssi": 0, 
        "signal_dbm": "-118", 
        "noise_dbm": "0"
    }, 
    {
        "bssid": "3E:46:08:BA:30:DC", 
        "source": "30:A8:DB:33:85:BD", 
        "time_sec": 1416057408, 
        "time_usec": 164712, 
        "lat": 51.787201, 
        "lon": 19.448145, 
        "spd": 0.972, 
        "heading": 0.0, 
        "fix": 3, 
        "alt": 192.699997, 
        "hdop": 0.0, 
        "vdop": 0.0, 
        "signal_rssi": 0, 
        "noise_rssi": 0, 
        "signal_dbm": "-118", 
        "noise_dbm": "0"
    }, 
    {
        "bssid": "F8:1A:67:96:3E:BB", 
        "source": "F8:1A:67:96:3E:BB", 
        "time_sec": 1416057408, 
        "time_usec": 193601, 
        "lat": 51.787201, 
        "lon": 19.448145, 
        "spd": 0.972, 
        "heading": 0.0, 
        "fix": 3, 
        "alt": 192.699997, 
        "hdop": 0.0, 
        "vdop": 0.0, 
        "signal_rssi": 0, 
        "noise_rssi": 0, 
        "signal_dbm": "-118", 
        "noise_dbm": "0"
    }, 
    {
        "bssid": "7C:05:07:58:0D:79", 
        "source": "00:24:14:60:5F:D9", 
        "time_sec": 1416057410, 
        "time_usec": 225502, 
        "lat": 51.787228, 
        "lon": 19.448154, 
        "spd": 0.972, 
        "heading": 0.0, 
        "fix": 3, 
        "alt": 195.5, 
        "hdop": 0.0, 
        "vdop": 0.0, 
        "signal_rssi": 0, 
        "noise_rssi": 0, 
        "signal_dbm": "108", 
        "noise_dbm": "0"
    }, 
    {
        "bssid": "3E:46:08:BA:30:DC", 
        "source": "30:A8:DB:33:85:BD", 
        "time_sec": 1416057411, 
        "time_usec": 780216, 
        "lat": 51.787231, 
        "lon": 19.448162, 
        "spd": 0.972, 
        "heading": 0.0, 
        "fix": 3, 
        "alt": 195.0, 
        "hdop": 0.0, 
        "vdop": 0.0, 
        "signal_rssi": 0, 
        "noise_rssi": 0, 
        "signal_dbm": "-123", 
        "noise_dbm": "0"
    }, 
    {
        "bssid": "3E:46:08:BA:30:DC", 
        "source": "30:A8:DB:33:85:BD", 
        "time_sec": 1416057411, 
        "time_usec": 781793, 
        "lat": 51.787231, 
        "lon": 19.448162, 
        "spd": 0.972, 
        "heading": 0.0, 
        "fix": 3, 
        "alt": 195.0, 
        "hdop": 0.0, 
        "vdop": 0.0, 
        "signal_rssi": 0, 
        "noise_rssi": 0, 
        "signal_dbm": "-123", 
        "noise_dbm": "0"
    }, 
    {
        "bssid": "78:F5:FD:E2:16:E1", 
        "source": "78:F5:FD:E2:16:E1", 
        "time_sec": 1416057411, 
        "time_usec": 787414, 
        "lat": 51.787247, 
        "lon": 19.448187, 
        "spd": 0.972, 
        "heading": 0.0, 
        "fix": 3, 
        "alt": 196.300003, 
        "hdop": 0.0, 
        "vdop": 0.0, 
        "signal_rssi": 0, 
        "noise_rssi": 0, 
        "signal_dbm": "-123", 
        "noise_dbm": "0"
    }, 
    {
        "bssid": "78:F5:FD:E2:16:E1", 
        "source": "78:F5:FD:E2:16:E1", 
        "time_sec": 1416057411, 
        "time_usec": 788034, 
        "lat": 51.787247, 
        "lon": 19.448187, 
        "spd": 0.972, 
        "heading": 0.0, 
        "fix": 3, 
        "alt": 196.300003, 
        "hdop": 0.0, 
        "vdop": 0.0, 
        "signal_rssi": 0, 
        "noise_rssi": 0, 
        "signal_dbm": "-123", 
        "noise_dbm": "0"
    }, 
    {
        "bssid": "78:F5:FD:E2:16:E1", 
        "source": "C8:14:79:8E:34:A8", 
        "time_sec": 1416057411, 
        "time_usec": 788751, 
        "lat": 51.787247, 
        "lon": 19.448187, 
        "spd": 0.972, 
        "heading": 0.0, 
        "fix": 3, 
        "alt": 196.300003, 
        "hdop": 0.0, 
        "vdop": 0.0, 
        "signal_rssi": 0, 
        "noise_rssi": 0, 
        "signal_dbm": "-123", 
        "noise_dbm": "0"
    }, 
    {
        "bssid": "78:F5:FD:E2:16:E1", 
        "source": "C8:14:79:8E:34:A8", 
        "time_sec": 1416057411, 
        "time_usec": 788874, 
        "lat": 51.787247, 
        "lon": 19.448187, 
        "spd": 0.972, 
        "heading": 0.0, 
        "fix": 3, 
        "alt": 196.300003, 
        "hdop": 0.0, 
        "vdop": 0.0, 
        "signal_rssi": 0, 
        "noise_rssi": 0, 
        "signal_dbm": "-123", 
        "noise_dbm": "0"
    }, 
    {
        "bssid": "3E:46:08:BA:30:DC", 
        "source": "30:A8:DB:33:85:BD", 
        "time_sec": 1416057411, 
        "time_usec": 791579, 
        "lat": 51.787247, 
        "lon": 19.448187, 
        "spd": 0.972, 
        "heading": 0.0, 
        "fix": 3, 
        "alt": 196.300003, 
        "hdop": 0.0, 
        "vdop": 0.0, 
        "signal_rssi": 0, 
        "noise_rssi": 0, 
        "signal_dbm": "-123", 
        "noise_dbm": "0"
    }, 
    {
        "bssid": "78:F5:FD:E2:16:E1", 
        "source": "78:F5:FD:E2:16:E1", 
        "time_sec": 1416057411, 
        "time_usec": 795363, 
        "lat": 51.787247, 
        "lon": 19.448187, 
        "spd": 0.972, 
        "heading": 0.0, 
        "fix": 3, 
        "alt": 196.300003, 
        "hdop": 0.0, 
        "vdop": 0.0, 
        "signal_rssi": 0, 
        "noise_rssi": 0, 
        "signal_dbm": "-123", 
        "noise_dbm": "0"
    }, 
    {
        "bssid": "78:F5:FD:E2:16:E1", 
        "source": "78:F5:FD:E2:16:E1", 
        "time_sec": 1416057411, 
        "time_usec": 795460, 
        "lat": 51.787247, 
        "lon": 19.448187, 
        "spd": 0.972, 
        "heading": 0.0, 
        "fix": 3, 
        "alt": 196.300003, 
        "hdop": 0.0, 
        "vdop": 0.0, 
        "signal_rssi": 0, 
        "noise_rssi": 0, 
        "signal_dbm": "-123", 
        "noise_dbm": "0"
    }, 
    {
        "bssid": "78:F5:FD:E2:16:E1", 
        "source": "78:F5:FD:E2:16:E1", 
        "time_sec": 1416057411, 
        "time_usec": 796062, 
        "lat": 51.787247, 
        "lon": 19.448187, 
        "spd": 0.972, 
        "heading": 0.0, 
        "fix": 3, 
        "alt": 196.300003, 
        "hdop": 0.0, 
        "vdop": 0.0, 
        "signal_rssi": 0, 
        "noise_rssi": 0, 
        "signal_dbm": "-123", 
        "noise_dbm": "0"
    }, 
    {
        "bssid": "78:F5:FD:E2:16:E1", 
        "source": "C8:14:79:8E:34:A8", 
        "time_sec": 1416057411, 
        "time_usec": 796492, 
        "lat": 51.787247, 
        "lon": 19.448187, 
        "spd": 0.972, 
        "heading": 0.0, 
        "fix": 3, 
        "alt": 196.300003, 
        "hdop": 0.0, 
        "vdop": 0.0, 
        "signal_rssi": 0, 
        "noise_rssi": 0, 
        "signal_dbm": "-123", 
        "noise_dbm": "0"
    }, 
    {
        "bssid": "78:F5:FD:E2:16:E1", 
        "source": "C8:14:79:8E:34:A8", 
        "time_sec": 1416057411, 
        "time_usec": 796912, 
        "lat": 51.787247, 
        "lon": 19.448187, 
        "spd": 0.972, 
        "heading": 0.0, 
        "fix": 3, 
        "alt": 196.300003, 
        "hdop": 0.0, 
        "vdop": 0.0, 
        "signal_rssi": 0, 
        "noise_rssi": 0, 
        "signal_dbm": "-123", 
        "noise_dbm": "0"
    }, 
    {
        "bssid": "78:F5:FD:E2:16:E1", 
        "source": "C8:14:79:8E:34:A8", 
        "time_sec": 1416057411, 
        "time_usec": 797942, 
        "lat": 51.787247, 
        "lon": 19.448187, 
        "spd": 0.972, 
        "heading": 0.0, 
        "fix": 3, 
        "alt": 196.300003, 
        "hdop": 0.0, 
        "vdop": 0.0, 
        "signal_rssi": 0, 
        "noise_rssi": 0, 
        "signal_dbm": "-123", 
        "noise_dbm": "0"
    }, 
    {
        "bssid": "3E:46:08:BA:30:DC", 
        "source": "30:A8:DB:33:85:BD", 
        "time_sec": 1416057411, 
        "time_usec": 800533, 
        "lat": 51.787247, 
        "lon": 19.448187, 
        "spd": 0.972, 
        "heading": 0.0, 
        "fix": 3, 
        "alt": 196.300003, 
        "hdop": 0.0, 
        "vdop": 0.0, 
        "signal_rssi": 0, 
        "noise_rssi": 0, 
        "signal_dbm": "-123", 
        "noise_dbm": "0"
    }, 
    {
        "bssid": "3E:46:08:BA:30:DC", 
        "source": "30:A8:DB:33:85:BD", 
        "time_sec": 1416057411, 
        "time_usec": 801544, 
        "lat": 51.787247, 
        "lon": 19.448187, 
        "spd": 0.972, 
        "heading": 0.0, 
        "fix": 3, 
        "alt": 196.300003, 
        "hdop": 0.0, 
        "vdop": 0.0, 
        "signal_rssi": 0, 
        "noise_rssi": 0, 
        "signal_dbm": "-123", 
        "noise_dbm": "0"
    }, 
    {
        "bssid": "3E:46:08:BA:30:DC", 
        "source": "30:A8:DB:33:85:BD", 
        "time_sec": 1416057411, 
        "time_usec": 802813, 
        "lat": 51.787247, 
        "lon": 19.448187, 
        "spd": 0.972, 
        "heading": 0.0, 
        "fix": 3, 
        "alt": 196.300003, 
        "hdop": 0.0, 
        "vdop": 0.0, 
        "signal_rssi": 0, 
        "noise_rssi": 0, 
        "signal_dbm": "-123", 
        "noise_dbm": "0"
    }, 
    {
        "bssid": "78:F5:FD:E2:16:E1", 
        "source": "78:F5:FD:E2:16:E1", 
        "time_sec": 1416057411, 
        "time_usec": 845361, 
        "lat": 51.787247, 
        "lon": 19.448187, 
        "spd": 0.972, 
        "heading": 0.0, 
        "fix": 3, 
        "alt": 196.300003, 
        "hdop": 0.0, 
        "vdop": 0.0, 
        "signal_rssi": 0, 
        "noise_rssi": 0, 
        "signal_dbm": "-123", 
        "noise_dbm": "0"
    }, 
    {
        "bssid": "78:F5:FD:E2:16:E1", 
        "source": "78:F5:FD:E2:16:E1", 
        "time_sec": 1416057411, 
        "time_usec": 845439, 
        "lat": 51.787247, 
        "lon": 19.448187, 
        "spd": 0.972, 
        "heading": 0.0, 
        "fix": 3, 
        "alt": 196.300003, 
        "hdop": 0.0, 
        "vdop": 0.0, 
        "signal_rssi": 0, 
        "noise_rssi": 0, 
        "signal_dbm": "-123", 
        "noise_dbm": "0"
    }, 
    {
        "bssid": "78:F5:FD:E2:16:E1", 
        "source": "78:F5:FD:E2:16:E1", 
        "time_sec": 1416057411, 
        "time_usec": 845474, 
        "lat": 51.787247, 
        "lon": 19.448187, 
        "spd": 0.972, 
        "heading": 0.0, 
        "fix": 3, 
        "alt": 196.300003, 
        "hdop": 0.0, 
        "vdop": 0.0, 
        "signal_rssi": 0, 
        "noise_rssi": 0, 
        "signal_dbm": "-123", 
        "noise_dbm": "0"
    }, 
    {
        "bssid": "78:F5:FD:E2:16:E1", 
        "source": "78:F5:FD:E2:16:E1", 
        "time_sec": 1416057411, 
        "time_usec": 845500, 
        "lat": 51.787247, 
        "lon": 19.448187, 
        "spd": 0.972, 
        "heading": 0.0, 
        "fix": 3, 
        "alt": 196.300003, 
        "hdop": 0.0, 
        "vdop": 0.0, 
        "signal_rssi": 0, 
        "noise_rssi": 0, 
        "signal_dbm": "-123", 
        "noise_dbm": "0"
    }, 
    {
        "bssid": "78:F5:FD:E2:16:E1", 
        "source": "78:F5:FD:E2:16:E1", 
        "time_sec": 1416057411, 
        "time_usec": 845993, 
        "lat": 51.787247, 
        "lon": 19.448187, 
        "spd": 0.972, 
        "heading": 0.0, 
        "fix": 3, 
        "alt": 196.300003, 
        "hdop": 0.0, 
        "vdop": 0.0, 
        "signal_rssi": 0, 
        "noise_rssi": 0, 
        "signal_dbm": "-123", 
        "noise_dbm": "0"
    }, 
    {
        "bssid": "78:F5:FD:E2:16:E1", 
        "source": "C8:14:79:8E:34:A8", 
        "time_sec": 1416057411, 
        "time_usec": 847061, 
        "lat": 51.787247, 
        "lon": 19.448187, 
        "spd": 0.972, 
        "heading": 0.0, 
        "fix": 3, 
        "alt": 196.300003, 
        "hdop": 0.0, 
        "vdop": 0.0, 
        "signal_rssi": 0, 
        "noise_rssi": 0, 
        "signal_dbm": "-123", 
        "noise_dbm": "0"
    }, 
    {
        "bssid": "78:F5:FD:E2:16:E1", 
        "source": "C8:14:79:8E:34:A8", 
        "time_sec": 1416057411, 
        "time_usec": 847107, 
        "lat": 51.787247, 
        "lon": 19.448187, 
        "spd": 0.972, 
        "heading": 0.0, 
        "fix": 3, 
        "alt": 196.300003, 
        "hdop": 0.0, 
        "vdop": 0.0, 
        "signal_rssi": 0, 
        "noise_rssi": 0, 
        "signal_dbm": "-123", 
        "noise_dbm": "0"
    }, 
    {
        "bssid": "78:F5:FD:E2:16:E1", 
        "source": "C8:14:79:8E:34:A8", 
        "time_sec": 1416057411, 
        "time_usec": 847144, 
        "lat": 51.787247, 
        "lon": 19.448187, 
        "spd": 0.972, 
        "heading": 0.0, 
        "fix": 3, 
        "alt": 196.300003, 
        "hdop": 0.0, 
        "vdop": 0.0, 
        "signal_rssi": 0, 
        "noise_rssi": 0, 
        "signal_dbm": "-123", 
        "noise_dbm": "0"
    }, 
    {
        "bssid": "78:F5:FD:E2:16:E1", 
        "source": "C8:14:79:8E:34:A8", 
        "time_sec": 1416057412, 
        "time_usec": 54895, 
        "lat": 51.787247, 
        "lon": 19.448187, 
        "spd": 0.972, 
        "heading": 0.0, 
        "fix": 3, 
        "alt": 196.300003, 
        "hdop": 0.0, 
        "vdop": 0.0, 
        "signal_rssi": 0, 
        "noise_rssi": 0, 
        "signal_dbm": "-123", 
        "noise_dbm": "0"
    }, 
    {
        "bssid": "78:F5:FD:E2:16:E1", 
        "source": "C8:14:79:8E:34:A8", 
        "time_sec": 1416057412, 
        "time_usec": 55645, 
        "lat": 51.787247, 
        "lon": 19.448187, 
        "spd": 0.972, 
        "heading": 0.0, 
        "fix": 3, 
        "alt": 196.300003, 
        "hdop": 0.0, 
        "vdop": 0.0, 
        "signal_rssi": 0, 
        "noise_rssi": 0, 
        "signal_dbm": "-123", 
        "noise_dbm": "0"
    }, 
    {
        "bssid": "00:23:54:AF:44:19", 
        "source": "00:24:14:60:5F:D9", 
        "time_sec": 1416057413, 
        "time_usec": 212427, 
        "lat": 51.787273, 
        "lon": 19.448227, 
        "spd": 0.972, 
        "heading": 0.0, 
        "fix": 3, 
        "alt": 196.5, 
        "hdop": 0.0, 
        "vdop": 0.0, 
        "signal_rssi": 0, 
        "noise_rssi": 0, 
        "signal_dbm": "-98", 
        "noise_dbm": "0"
    }, 
    {
        "bssid": "00:23:54:AF:44:19", 
        "source": "00:24:14:60:5F:D9", 
        "time_sec": 1416057413, 
        "time_usec": 215804, 
        "lat": 51.787273, 
        "lon": 19.448227, 
        "spd": 0.972, 
        "heading": 0.0, 
        "fix": 3, 
        "alt": 196.5, 
        "hdop": 0.0, 
        "vdop": 0.0, 
        "signal_rssi": 0, 
        "noise_rssi": 0, 
        "signal_dbm": "-98", 
        "noise_dbm": "0"
    }, 
    {
        "bssid": "00:23:54:AF:44:19", 
        "source": "00:23:54:AF:44:19", 
        "time_sec": 1416057413, 
        "time_usec": 217065, 
        "lat": 51.787273, 
        "lon": 19.448227, 
        "spd": 0.972, 
        "heading": 0.0, 
        "fix": 3, 
        "alt": 196.5, 
        "hdop": 0.0, 
        "vdop": 0.0, 
        "signal_rssi": 0, 
        "noise_rssi": 0, 
        "signal_dbm": "-98", 
        "noise_dbm": "0"
    }, 
    {
        "bssid": "80:1F:02:40:EE:38", 
        "source": "80:1F:02:40:EE:38", 
        "time_sec": 1416057414, 
        "time_usec": 552903, 
        "lat": 51.787312, 
        "lon": 19.448292, 
        "spd": 0.972, 
        "heading": 0.0, 
        "fix": 3, 
        "alt": 197.699997, 
        "hdop": 0.0, 
        "vdop": 0.0, 
        "signal_rssi": 0, 
        "noise_rssi": 0, 
        "signal_dbm": "-93", 
        "noise_dbm": "0"
    }, 
    {
        "bssid": "7C:05:07:58:0D:79", 
        "source": "00:24:14:60:5F:D9", 
        "time_sec": 1416057414, 
        "time_usec": 700696, 
        "lat": 51.787312, 
        "lon": 19.448292, 
        "spd": 0.972, 
        "heading": 0.0, 
        "fix": 3, 
        "alt": 197.699997, 
        "hdop": 0.0, 
        "vdop": 0.0, 
        "signal_rssi": 0, 
        "noise_rssi": 0, 
        "signal_dbm": "108", 
        "noise_dbm": "0"
    }, 
    {
        "bssid": "C8:64:C7:40:80:4C", 
        "source": "C8:64:C7:40:80:4C", 
        "time_sec": 1416057414, 
        "time_usec": 709111, 
        "lat": 51.787312, 
        "lon": 19.448292, 
        "spd": 0.972, 
        "heading": 0.0, 
        "fix": 3, 
        "alt": 197.699997, 
        "hdop": 0.0, 
        "vdop": 0.0, 
        "signal_rssi": 0, 
        "noise_rssi": 0, 
        "signal_dbm": "108", 
        "noise_dbm": "0"
    }, 
    {
        "bssid": "3E:46:08:BA:30:DC", 
        "source": "30:A8:DB:33:85:BD", 
        "time_sec": 1416057415, 
        "time_usec": 25639, 
        "lat": 51.787346, 
        "lon": 19.448341, 
        "spd": 0.972, 
        "heading": 0.0, 
        "fix": 3, 
        "alt": 198.199997, 
        "hdop": 0.0, 
        "vdop": 0.0, 
        "signal_rssi": 0, 
        "noise_rssi": 0, 
        "signal_dbm": "-128", 
        "noise_dbm": "0"
    }, 
    {
        "bssid": "3E:46:08:BA:30:DC", 
        "source": "30:A8:DB:33:85:BD", 
        "time_sec": 1416057415, 
        "time_usec": 28712, 
        "lat": 51.787346, 
        "lon": 19.448341, 
        "spd": 0.972, 
        "heading": 0.0, 
        "fix": 3, 
        "alt": 198.199997, 
        "hdop": 0.0, 
        "vdop": 0.0, 
        "signal_rssi": 0, 
        "noise_rssi": 0, 
        "signal_dbm": "-128", 
        "noise_dbm": "0"
    }, 
    {
        "bssid": "3E:46:08:BA:30:DC", 
        "source": "30:A8:DB:33:85:BD", 
        "time_sec": 1416057415, 
        "time_usec": 31371, 
        "lat": 51.787346, 
        "lon": 19.448341, 
        "spd": 0.972, 
        "heading": 0.0, 
        "fix": 3, 
        "alt": 198.199997, 
        "hdop": 0.0, 
        "vdop": 0.0, 
        "signal_rssi": 0, 
        "noise_rssi": 0, 
        "signal_dbm": "-128", 
        "noise_dbm": "0"
    }, 
    {
        "bssid": "00:26:18:51:51:89", 
        "source": "00:24:14:60:5F:D9", 
        "time_sec": 1416057416, 
        "time_usec": 538161, 
        "lat": 51.787365, 
        "lon": 19.448362, 
        "spd": 0.972, 
        "heading": 0.0, 
        "fix": 3, 
        "alt": 201.100006, 
        "hdop": 0.0, 
        "vdop": 0.0, 
        "signal_rssi": 0, 
        "noise_rssi": 0, 
        "signal_dbm": "-123", 
        "noise_dbm": "0"
    }, 
    {
        "bssid": "00:26:18:51:51:89", 
        "source": "00:24:14:60:5F:D9", 
        "time_sec": 1416057416, 
        "time_usec": 642778, 
        "lat": 51.787365, 
        "lon": 19.448362, 
        "spd": 0.972, 
        "heading": 0.0, 
        "fix": 3, 
        "alt": 201.100006, 
        "hdop": 0.0, 
        "vdop": 0.0, 
        "signal_rssi": 0, 
        "noise_rssi": 0, 
        "signal_dbm": "-123", 
        "noise_dbm": "0"
    }, 
    {
        "bssid": "78:F5:FD:E2:16:E1", 
        "source": "C8:14:79:8E:34:A8", 
        "time_sec": 1416057416, 
        "time_usec": 666475, 
        "lat": 51.787365, 
        "lon": 19.448362, 
        "spd": 0.972, 
        "heading": 0.0, 
        "fix": 3, 
        "alt": 201.100006, 
        "hdop": 0.0, 
        "vdop": 0.0, 
        "signal_rssi": 0, 
        "noise_rssi": 0, 
        "signal_dbm": "-123", 
        "noise_dbm": "0"
    }, 
    {
        "bssid": "00:26:18:51:51:89", 
        "source": "00:24:14:60:5F:D9", 
        "time_sec": 1416057416, 
        "time_usec": 722529, 
        "lat": 51.787376, 
        "lon": 19.448381, 
        "spd": 0.653, 
        "heading": 0.0, 
        "fix": 3, 
        "alt": 204.600006, 
        "hdop": 0.0, 
        "vdop": 0.0, 
        "signal_rssi": 0, 
        "noise_rssi": 0, 
        "signal_dbm": "-123", 
        "noise_dbm": "0"
    }, 
    {
        "bssid": "E0:CB:4E:52:30:5C", 
        "source": "00:24:14:60:5F:D9", 
        "time_sec": 1416057416, 
        "time_usec": 727350, 
        "lat": 51.787376, 
        "lon": 19.448381, 
        "spd": 0.653, 
        "heading": 0.0, 
        "fix": 3, 
        "alt": 204.600006, 
        "hdop": 0.0, 
        "vdop": 0.0, 
        "signal_rssi": 0, 
        "noise_rssi": 0, 
        "signal_dbm": "-123", 
        "noise_dbm": "0"
    }, 
    {
        "bssid": "00:23:54:AF:44:19", 
        "source": "00:24:14:60:5F:D9", 
        "time_sec": 1416057418, 
        "time_usec": 230302, 
        "lat": 51.787369, 
        "lon": 19.448393, 
        "spd": 1.08, 
        "heading": 107.669998, 
        "fix": 3, 
        "alt": 206.800003, 
        "hdop": 0.0, 
        "vdop": 0.0, 
        "signal_rssi": 0, 
        "noise_rssi": 0, 
        "signal_dbm": "-98", 
        "noise_dbm": "0"
    }, 
    {
        "bssid": "C0:4A:00:D3:F0:24", 
        "source": "74:2F:68:81:89:A6", 
        "time_sec": 1416057420, 
        "time_usec": 940822, 
        "lat": 51.787365, 
        "lon": 19.448471, 
        "spd": 3.334, 
        "heading": 99.650002, 
        "fix": 3, 
        "alt": 214.600006, 
        "hdop": 0.0, 
        "vdop": 0.0, 
        "signal_rssi": 0, 
        "noise_rssi": 0, 
        "signal_dbm": "113", 
        "noise_dbm": "0"
    }, 
    {
        "bssid": "C0:4A:00:D3:F0:24", 
        "source": "74:2F:68:81:89:A6", 
        "time_sec": 1416057421, 
        "time_usec": 60337, 
        "lat": 51.787365, 
        "lon": 19.448471, 
        "spd": 3.334, 
        "heading": 99.650002, 
        "fix": 3, 
        "alt": 214.600006, 
        "hdop": 0.0, 
        "vdop": 0.0, 
        "signal_rssi": 0, 
        "noise_rssi": 0, 
        "signal_dbm": "113", 
        "noise_dbm": "0"
    }, 
    {
        "bssid": "C0:4A:00:D3:F0:24", 
        "source": "74:2F:68:81:89:A6", 
        "time_sec": 1416057421, 
        "time_usec": 117545, 
        "lat": 51.787365, 
        "lon": 19.448471, 
        "spd": 3.334, 
        "heading": 99.650002, 
        "fix": 3, 
        "alt": 214.600006, 
        "hdop": 0.0, 
        "vdop": 0.0, 
        "signal_rssi": 0, 
        "noise_rssi": 0, 
        "signal_dbm": "113", 
        "noise_dbm": "0"
    }, 
    {
        "bssid": "78:F5:FD:E2:16:E1", 
        "source": "C8:14:79:8E:34:A8", 
        "time_sec": 1416057421, 
        "time_usec": 200780, 
        "lat": 51.787365, 
        "lon": 19.448471, 
        "spd": 3.334, 
        "heading": 99.650002, 
        "fix": 3, 
        "alt": 214.600006, 
        "hdop": 0.0, 
        "vdop": 0.0, 
        "signal_rssi": 0, 
        "noise_rssi": 0, 
        "signal_dbm": "-123", 
        "noise_dbm": "0"
    }, 
    {
        "bssid": "78:F5:FD:E2:16:E1", 
        "source": "C8:14:79:8E:34:A8", 
        "time_sec": 1416057421, 
        "time_usec": 222539, 
        "lat": 51.787365, 
        "lon": 19.448471, 
        "spd": 3.334, 
        "heading": 99.650002, 
        "fix": 3, 
        "alt": 214.600006, 
        "hdop": 0.0, 
        "vdop": 0.0, 
        "signal_rssi": 0, 
        "noise_rssi": 0, 
        "signal_dbm": "-123", 
        "noise_dbm": "0"
    }, 
    {
        "bssid": "78:F5:FD:E2:16:E1", 
        "source": "78:F5:FD:E2:16:E1", 
        "time_sec": 1416057421, 
        "time_usec": 235206, 
        "lat": 51.787365, 
        "lon": 19.448471, 
        "spd": 3.334, 
        "heading": 99.650002, 
        "fix": 3, 
        "alt": 214.600006, 
        "hdop": 0.0, 
        "vdop": 0.0, 
        "signal_rssi": 0, 
        "noise_rssi": 0, 
        "signal_dbm": "-123", 
        "noise_dbm": "0"
    }, 
    {
        "bssid": "78:F5:FD:E2:16:E1", 
        "source": "C8:14:79:8E:34:A8", 
        "time_sec": 1416057421, 
        "time_usec": 237143, 
        "lat": 51.787365, 
        "lon": 19.448471, 
        "spd": 3.334, 
        "heading": 99.650002, 
        "fix": 3, 
        "alt": 214.600006, 
        "hdop": 0.0, 
        "vdop": 0.0, 
        "signal_rssi": 0, 
        "noise_rssi": 0, 
        "signal_dbm": "-123", 
        "noise_dbm": "0"
    }, 
    {
        "bssid": "78:F5:FD:E2:16:E1", 
        "source": "C8:14:79:8E:34:A8", 
        "time_sec": 1416057421, 
        "time_usec": 255333, 
        "lat": 51.787365, 
        "lon": 19.448471, 
        "spd": 3.334, 
        "heading": 99.650002, 
        "fix": 3, 
        "alt": 214.600006, 
        "hdop": 0.0, 
        "vdop": 0.0, 
        "signal_rssi": 0, 
        "noise_rssi": 0, 
        "signal_dbm": "-123", 
        "noise_dbm": "0"
    }, 
    {
        "bssid": "78:F5:FD:E2:16:E1", 
        "source": "78:F5:FD:E2:16:E1", 
        "time_sec": 1416057421, 
        "time_usec": 274788, 
        "lat": 51.787365, 
        "lon": 19.448471, 
        "spd": 3.334, 
        "heading": 99.650002, 
        "fix": 3, 
        "alt": 214.600006, 
        "hdop": 0.0, 
        "vdop": 0.0, 
        "signal_rssi": 0, 
        "noise_rssi": 0, 
        "signal_dbm": "-123", 
        "noise_dbm": "0"
    }, 
    {
        "bssid": "78:F5:FD:E2:16:E1", 
        "source": "C8:14:79:8E:34:A8", 
        "time_sec": 1416057421, 
        "time_usec": 276422, 
        "lat": 51.787365, 
        "lon": 19.448471, 
        "spd": 3.334, 
        "heading": 99.650002, 
        "fix": 3, 
        "alt": 214.600006, 
        "hdop": 0.0, 
        "vdop": 0.0, 
        "signal_rssi": 0, 
        "noise_rssi": 0, 
        "signal_dbm": "-123", 
        "noise_dbm": "0"
    }, 
    {
        "bssid": "78:F5:FD:E2:16:E1", 
        "source": "C8:14:79:8E:34:A8", 
        "time_sec": 1416057421, 
        "time_usec": 277196, 
        "lat": 51.787365, 
        "lon": 19.448471, 
        "spd": 3.334, 
        "heading": 99.650002, 
        "fix": 3, 
        "alt": 214.600006, 
        "hdop": 0.0, 
        "vdop": 0.0, 
        "signal_rssi": 0, 
        "noise_rssi": 0, 
        "signal_dbm": "-123", 
        "noise_dbm": "0"
    }, 
    {
        "bssid": "78:F5:FD:E2:16:E1", 
        "source": "78:F5:FD:E2:16:E1", 
        "time_sec": 1416057421, 
        "time_usec": 284877, 
        "lat": 51.787365, 
        "lon": 19.448471, 
        "spd": 3.334, 
        "heading": 99.650002, 
        "fix": 3, 
        "alt": 214.600006, 
        "hdop": 0.0, 
        "vdop": 0.0, 
        "signal_rssi": 0, 
        "noise_rssi": 0, 
        "signal_dbm": "-123", 
        "noise_dbm": "0"
    }, 
    {
        "bssid": "78:F5:FD:E2:16:E1", 
        "source": "C8:14:79:8E:34:A8", 
        "time_sec": 1416057421, 
        "time_usec": 288076, 
        "lat": 51.787365, 
        "lon": 19.448471, 
        "spd": 3.334, 
        "heading": 99.650002, 
        "fix": 3, 
        "alt": 214.600006, 
        "hdop": 0.0, 
        "vdop": 0.0, 
        "signal_rssi": 0, 
        "noise_rssi": 0, 
        "signal_dbm": "-123", 
        "noise_dbm": "0"
    }, 
    {
        "bssid": "78:F5:FD:E2:16:E1", 
        "source": "C8:14:79:8E:34:A8", 
        "time_sec": 1416057421, 
        "time_usec": 288668, 
        "lat": 51.787365, 
        "lon": 19.448471, 
        "spd": 3.334, 
        "heading": 99.650002, 
        "fix": 3, 
        "alt": 214.600006, 
        "hdop": 0.0, 
        "vdop": 0.0, 
        "signal_rssi": 0, 
        "noise_rssi": 0, 
        "signal_dbm": "-123", 
        "noise_dbm": "0"
    }, 
    {
        "bssid": "78:F5:FD:E2:16:E1", 
        "source": "C8:14:79:8E:34:A8", 
        "time_sec": 1416057421, 
        "time_usec": 288710, 
        "lat": 51.787365, 
        "lon": 19.448471, 
        "spd": 3.334, 
        "heading": 99.650002, 
        "fix": 3, 
        "alt": 214.600006, 
        "hdop": 0.0, 
        "vdop": 0.0, 
        "signal_rssi": 0, 
        "noise_rssi": 0, 
        "signal_dbm": "-123", 
        "noise_dbm": "0"
    }, 
    {
        "bssid": "78:F5:FD:E2:16:E1", 
        "source": "78:F5:FD:E2:16:E1", 
        "time_sec": 1416057421, 
        "time_usec": 325552, 
        "lat": 51.787365, 
        "lon": 19.448471, 
        "spd": 3.334, 
        "heading": 99.650002, 
        "fix": 3, 
        "alt": 214.600006, 
        "hdop": 0.0, 
        "vdop": 0.0, 
        "signal_rssi": 0, 
        "noise_rssi": 0, 
        "signal_dbm": "-123", 
        "noise_dbm": "0"
    }, 
    {
        "bssid": "78:F5:FD:E2:16:E1", 
        "source": "78:F5:FD:E2:16:E1", 
        "time_sec": 1416057421, 
        "time_usec": 325615, 
        "lat": 51.787365, 
        "lon": 19.448471, 
        "spd": 3.334, 
        "heading": 99.650002, 
        "fix": 3, 
        "alt": 214.600006, 
        "hdop": 0.0, 
        "vdop": 0.0, 
        "signal_rssi": 0, 
        "noise_rssi": 0, 
        "signal_dbm": "-123", 
        "noise_dbm": "0"
    }, 
    {
        "bssid": "78:F5:FD:E2:16:E1", 
        "source": "78:F5:FD:E2:16:E1", 
        "time_sec": 1416057421, 
        "time_usec": 325648, 
        "lat": 51.787365, 
        "lon": 19.448471, 
        "spd": 3.334, 
        "heading": 99.650002, 
        "fix": 3, 
        "alt": 214.600006, 
        "hdop": 0.0, 
        "vdop": 0.0, 
        "signal_rssi": 0, 
        "noise_rssi": 0, 
        "signal_dbm": "-123", 
        "noise_dbm": "0"
    }, 
    {
        "bssid": "78:F5:FD:E2:16:E1", 
        "source": "C8:14:79:8E:34:A8", 
        "time_sec": 1416057421, 
        "time_usec": 326668, 
        "lat": 51.787365, 
        "lon": 19.448471, 
        "spd": 3.334, 
        "heading": 99.650002, 
        "fix": 3, 
        "alt": 214.600006, 
        "hdop": 0.0, 
        "vdop": 0.0, 
        "signal_rssi": 0, 
        "noise_rssi": 0, 
        "signal_dbm": "-123", 
        "noise_dbm": "0"
    }, 
    {
        "bssid": "78:F5:FD:E2:16:E1", 
        "source": "C8:14:79:8E:34:A8", 
        "time_sec": 1416057421, 
        "time_usec": 328957, 
        "lat": 51.787365, 
        "lon": 19.448471, 
        "spd": 3.334, 
        "heading": 99.650002, 
        "fix": 3, 
        "alt": 214.600006, 
        "hdop": 0.0, 
        "vdop": 0.0, 
        "signal_rssi": 0, 
        "noise_rssi": 0, 
        "signal_dbm": "-123", 
        "noise_dbm": "0"
    }, 
    {
        "bssid": "78:F5:FD:E2:16:E1", 
        "source": "78:F5:FD:E2:16:E1", 
        "time_sec": 1416057421, 
        "time_usec": 348610, 
        "lat": 51.787365, 
        "lon": 19.448471, 
        "spd": 3.334, 
        "heading": 99.650002, 
        "fix": 3, 
        "alt": 214.600006, 
        "hdop": 0.0, 
        "vdop": 0.0, 
        "signal_rssi": 0, 
        "noise_rssi": 0, 
        "signal_dbm": "-123", 
        "noise_dbm": "0"
    }, 
    {
        "bssid": "78:F5:FD:E2:16:E1", 
        "source": "78:F5:FD:E2:16:E1", 
        "time_sec": 1416057421, 
        "time_usec": 349841, 
        "lat": 51.787365, 
        "lon": 19.448471, 
        "spd": 3.334, 
        "heading": 99.650002, 
        "fix": 3, 
        "alt": 214.600006, 
        "hdop": 0.0, 
        "vdop": 0.0, 
        "signal_rssi": 0, 
        "noise_rssi": 0, 
        "signal_dbm": "-123", 
        "noise_dbm": "0"
    }, 
    {
        "bssid": "78:F5:FD:E2:16:E1", 
        "source": "78:F5:FD:E2:16:E1", 
        "time_sec": 1416057421, 
        "time_usec": 366305, 
        "lat": 51.787365, 
        "lon": 19.448471, 
        "spd": 3.334, 
        "heading": 99.650002, 
        "fix": 3, 
        "alt": 214.600006, 
        "hdop": 0.0, 
        "vdop": 0.0, 
        "signal_rssi": 0, 
        "noise_rssi": 0, 
        "signal_dbm": "-123", 
        "noise_dbm": "0"
    }, 
    {
        "bssid": "78:F5:FD:E2:16:E1", 
        "source": "78:F5:FD:E2:16:E1", 
        "time_sec": 1416057421, 
        "time_usec": 366405, 
        "lat": 51.787365, 
        "lon": 19.448471, 
        "spd": 3.334, 
        "heading": 99.650002, 
        "fix": 3, 
        "alt": 214.600006, 
        "hdop": 0.0, 
        "vdop": 0.0, 
        "signal_rssi": 0, 
        "noise_rssi": 0, 
        "signal_dbm": "-123", 
        "noise_dbm": "0"
    }, 
    {
        "bssid": "78:F5:FD:E2:16:E1", 
        "source": "78:F5:FD:E2:16:E1", 
        "time_sec": 1416057421, 
        "time_usec": 366442, 
        "lat": 51.787365, 
        "lon": 19.448471, 
        "spd": 3.334, 
        "heading": 99.650002, 
        "fix": 3, 
        "alt": 214.600006, 
        "hdop": 0.0, 
        "vdop": 0.0, 
        "signal_rssi": 0, 
        "noise_rssi": 0, 
        "signal_dbm": "-123", 
        "noise_dbm": "0"
    }, 
    {
        "bssid": "78:F5:FD:E2:16:E1", 
        "source": "C8:14:79:8E:34:A8", 
        "time_sec": 1416057421, 
        "time_usec": 367559, 
        "lat": 51.787365, 
        "lon": 19.448471, 
        "spd": 3.334, 
        "heading": 99.650002, 
        "fix": 3, 
        "alt": 214.600006, 
        "hdop": 0.0, 
        "vdop": 0.0, 
        "signal_rssi": 0, 
        "noise_rssi": 0, 
        "signal_dbm": "-123", 
        "noise_dbm": "0"
    }, 
    {
        "bssid": "78:F5:FD:E2:16:E1", 
        "source": "C8:14:79:8E:34:A8", 
        "time_sec": 1416057421, 
        "time_usec": 370523, 
        "lat": 51.787365, 
        "lon": 19.448471, 
        "spd": 3.334, 
        "heading": 99.650002, 
        "fix": 3, 
        "alt": 214.600006, 
        "hdop": 0.0, 
        "vdop": 0.0, 
        "signal_rssi": 0, 
        "noise_rssi": 0, 
        "signal_dbm": "-123", 
        "noise_dbm": "0"
    }, 
    {
        "bssid": "00:26:18:51:51:89", 
        "source": "00:24:14:60:5F:D9", 
        "time_sec": 1416057421, 
        "time_usec": 389682, 
        "lat": 51.787365, 
        "lon": 19.448471, 
        "spd": 3.334, 
        "heading": 99.650002, 
        "fix": 3, 
        "alt": 214.600006, 
        "hdop": 0.0, 
        "vdop": 0.0, 
        "signal_rssi": 0, 
        "noise_rssi": 0, 
        "signal_dbm": "-123", 
        "noise_dbm": "0"
    }, 
    {
        "bssid": "78:F5:FD:E2:16:E1", 
        "source": "78:F5:FD:E2:16:E1", 
        "time_sec": 1416057421, 
        "time_usec": 405109, 
        "lat": 51.787365, 
        "lon": 19.448471, 
        "spd": 3.334, 
        "heading": 99.650002, 
        "fix": 3, 
        "alt": 214.600006, 
        "hdop": 0.0, 
        "vdop": 0.0, 
        "signal_rssi": 0, 
        "noise_rssi": 0, 
        "signal_dbm": "-123", 
        "noise_dbm": "0"
    }, 
    {
        "bssid": "78:F5:FD:E2:16:E1", 
        "source": "78:F5:FD:E2:16:E1", 
        "time_sec": 1416057421, 
        "time_usec": 415217, 
        "lat": 51.787365, 
        "lon": 19.448471, 
        "spd": 3.334, 
        "heading": 99.650002, 
        "fix": 3, 
        "alt": 214.600006, 
        "hdop": 0.0, 
        "vdop": 0.0, 
        "signal_rssi": 0, 
        "noise_rssi": 0, 
        "signal_dbm": "-123", 
        "noise_dbm": "0"
    }, 
    {
        "bssid": "78:F5:FD:E2:16:E1", 
        "source": "78:F5:FD:E2:16:E1", 
        "time_sec": 1416057421, 
        "time_usec": 415285, 
        "lat": 51.787365, 
        "lon": 19.448471, 
        "spd": 3.334, 
        "heading": 99.650002, 
        "fix": 3, 
        "alt": 214.600006, 
        "hdop": 0.0, 
        "vdop": 0.0, 
        "signal_rssi": 0, 
        "noise_rssi": 0, 
        "signal_dbm": "-123", 
        "noise_dbm": "0"
    }, 
    {
        "bssid": "78:F5:FD:E2:16:E1", 
        "source": "C8:14:79:8E:34:A8", 
        "time_sec": 1416057421, 
        "time_usec": 415897, 
        "lat": 51.787365, 
        "lon": 19.448471, 
        "spd": 3.334, 
        "heading": 99.650002, 
        "fix": 3, 
        "alt": 214.600006, 
        "hdop": 0.0, 
        "vdop": 0.0, 
        "signal_rssi": 0, 
        "noise_rssi": 0, 
        "signal_dbm": "-123", 
        "noise_dbm": "0"
    }, 
    {
        "bssid": "78:F5:FD:E2:16:E1", 
        "source": "78:F5:FD:E2:16:E1", 
        "time_sec": 1416057421, 
        "time_usec": 425085, 
        "lat": 51.787365, 
        "lon": 19.448471, 
        "spd": 3.334, 
        "heading": 99.650002, 
        "fix": 3, 
        "alt": 214.600006, 
        "hdop": 0.0, 
        "vdop": 0.0, 
        "signal_rssi": 0, 
        "noise_rssi": 0, 
        "signal_dbm": "-123", 
        "noise_dbm": "0"
    }, 
    {
        "bssid": "78:F5:FD:E2:16:E1", 
        "source": "78:F5:FD:E2:16:E1", 
        "time_sec": 1416057421, 
        "time_usec": 425188, 
        "lat": 51.787365, 
        "lon": 19.448471, 
        "spd": 3.334, 
        "heading": 99.650002, 
        "fix": 3, 
        "alt": 214.600006, 
        "hdop": 0.0, 
        "vdop": 0.0, 
        "signal_rssi": 0, 
        "noise_rssi": 0, 
        "signal_dbm": "-123", 
        "noise_dbm": "0"
    }, 
    {
        "bssid": "78:F5:FD:E2:16:E1", 
        "source": "C8:14:79:8E:34:A8", 
        "time_sec": 1416057421, 
        "time_usec": 426257, 
        "lat": 51.787365, 
        "lon": 19.448471, 
        "spd": 3.334, 
        "heading": 99.650002, 
        "fix": 3, 
        "alt": 214.600006, 
        "hdop": 0.0, 
        "vdop": 0.0, 
        "signal_rssi": 0, 
        "noise_rssi": 0, 
        "signal_dbm": "-123", 
        "noise_dbm": "0"
    }, 
    {
        "bssid": "78:F5:FD:E2:16:E1", 
        "source": "78:F5:FD:E2:16:E1", 
        "time_sec": 1416057421, 
        "time_usec": 434810, 
        "lat": 51.787365, 
        "lon": 19.448471, 
        "spd": 3.334, 
        "heading": 99.650002, 
        "fix": 3, 
        "alt": 214.600006, 
        "hdop": 0.0, 
        "vdop": 0.0, 
        "signal_rssi": 0, 
        "noise_rssi": 0, 
        "signal_dbm": "-123", 
        "noise_dbm": "0"
    }, 
    {
        "bssid": "A0:F3:C1:FA:01:48", 
        "source": "C0:F8:DA:4D:D5:AC", 
        "time_sec": 1416057422, 
        "time_usec": 297601, 
        "lat": 51.787354, 
        "lon": 19.448496, 
        "spd": 3.277, 
        "heading": 96.779999, 
        "fix": 3, 
        "alt": 216.5, 
        "hdop": 0.0, 
        "vdop": 0.0, 
        "signal_rssi": 0, 
        "noise_rssi": 0, 
        "signal_dbm": "-118", 
        "noise_dbm": "0"
    }, 
    {
        "bssid": "00:26:18:90:3C:4B", 
        "source": "00:26:18:90:3C:4B", 
        "time_sec": 1416057422, 
        "time_usec": 824566, 
        "lat": 51.78735, 
        "lon": 19.448544, 
        "spd": 3.436, 
        "heading": 99.510002, 
        "fix": 3, 
        "alt": 217.699997, 
        "hdop": 0.0, 
        "vdop": 0.0, 
        "signal_rssi": 0, 
        "noise_rssi": 0, 
        "signal_dbm": "-98", 
        "noise_dbm": "0"
    }, 
    {
        "bssid": "F8:1A:67:96:3E:BB", 
        "source": "F8:1A:67:96:3E:BB", 
        "time_sec": 1416057423, 
        "time_usec": 554765, 
        "lat": 51.78735, 
        "lon": 19.448544, 
        "spd": 3.436, 
        "heading": 99.510002, 
        "fix": 3, 
        "alt": 217.699997, 
        "hdop": 0.0, 
        "vdop": 0.0, 
        "signal_rssi": 0, 
        "noise_rssi": 0, 
        "signal_dbm": "-113", 
        "noise_dbm": "0"
    }, 
    {
        "bssid": "78:F5:FD:E2:16:E1", 
        "source": "78:F5:FD:E2:16:E1", 
        "time_sec": 1416057425, 
        "time_usec": 837694, 
        "lat": 51.7873, 
        "lon": 19.448706, 
        "spd": 3.977, 
        "heading": 102.080002, 
        "fix": 3, 
        "alt": 217.699997, 
        "hdop": 0.0, 
        "vdop": 0.0, 
        "signal_rssi": 0, 
        "noise_rssi": 0, 
        "signal_dbm": "-123", 
        "noise_dbm": "0"
    }, 
    {
        "bssid": "78:F5:FD:E2:16:E1", 
        "source": "78:F5:FD:E2:16:E1", 
        "time_sec": 1416057425, 
        "time_usec": 839280, 
        "lat": 51.7873, 
        "lon": 19.448706, 
        "spd": 3.977, 
        "heading": 102.080002, 
        "fix": 3, 
        "alt": 217.699997, 
        "hdop": 0.0, 
        "vdop": 0.0, 
        "signal_rssi": 0, 
        "noise_rssi": 0, 
        "signal_dbm": "-123", 
        "noise_dbm": "0"
    }, 
    {
        "bssid": "78:F5:FD:E2:16:E1", 
        "source": "C8:14:79:8E:34:A8", 
        "time_sec": 1416057425, 
        "time_usec": 847357, 
        "lat": 51.7873, 
        "lon": 19.448706, 
        "spd": 3.977, 
        "heading": 102.080002, 
        "fix": 3, 
        "alt": 217.699997, 
        "hdop": 0.0, 
        "vdop": 0.0, 
        "signal_rssi": 0, 
        "noise_rssi": 0, 
        "signal_dbm": "-123", 
        "noise_dbm": "0"
    }, 
    {
        "bssid": "78:F5:FD:E2:16:E1", 
        "source": "C8:14:79:8E:34:A8", 
        "time_sec": 1416057425, 
        "time_usec": 847422, 
        "lat": 51.7873, 
        "lon": 19.448706, 
        "spd": 3.977, 
        "heading": 102.080002, 
        "fix": 3, 
        "alt": 217.699997, 
        "hdop": 0.0, 
        "vdop": 0.0, 
        "signal_rssi": 0, 
        "noise_rssi": 0, 
        "signal_dbm": "-123", 
        "noise_dbm": "0"
    }, 
    {
        "bssid": "78:F5:FD:E2:16:E1", 
        "source": "C8:14:79:8E:34:A8", 
        "time_sec": 1416057425, 
        "time_usec": 847461, 
        "lat": 51.7873, 
        "lon": 19.448706, 
        "spd": 3.977, 
        "heading": 102.080002, 
        "fix": 3, 
        "alt": 217.699997, 
        "hdop": 0.0, 
        "vdop": 0.0, 
        "signal_rssi": 0, 
        "noise_rssi": 0, 
        "signal_dbm": "-123", 
        "noise_dbm": "0"
    }, 
    {
        "bssid": "78:F5:FD:E2:16:E1", 
        "source": "C8:14:79:8E:34:A8", 
        "time_sec": 1416057425, 
        "time_usec": 847503, 
        "lat": 51.7873, 
        "lon": 19.448706, 
        "spd": 3.977, 
        "heading": 102.080002, 
        "fix": 3, 
        "alt": 217.699997, 
        "hdop": 0.0, 
        "vdop": 0.0, 
        "signal_rssi": 0, 
        "noise_rssi": 0, 
        "signal_dbm": "-123", 
        "noise_dbm": "0"
    }, 
    {
        "bssid": "78:F5:FD:E2:16:E1", 
        "source": "C8:14:79:8E:34:A8", 
        "time_sec": 1416057425, 
        "time_usec": 847534, 
        "lat": 51.7873, 
        "lon": 19.448706, 
        "spd": 3.977, 
        "heading": 102.080002, 
        "fix": 3, 
        "alt": 217.699997, 
        "hdop": 0.0, 
        "vdop": 0.0, 
        "signal_rssi": 0, 
        "noise_rssi": 0, 
        "signal_dbm": "-123", 
        "noise_dbm": "0"
    }, 
    {
        "bssid": "78:F5:FD:E2:16:E1", 
        "source": "C8:14:79:8E:34:A8", 
        "time_sec": 1416057425, 
        "time_usec": 848248, 
        "lat": 51.7873, 
        "lon": 19.448706, 
        "spd": 3.977, 
        "heading": 102.080002, 
        "fix": 3, 
        "alt": 217.699997, 
        "hdop": 0.0, 
        "vdop": 0.0, 
        "signal_rssi": 0, 
        "noise_rssi": 0, 
        "signal_dbm": "-123", 
        "noise_dbm": "0"
    }, 
    {
        "bssid": "78:F5:FD:E2:16:E1", 
        "source": "C8:14:79:8E:34:A8", 
        "time_sec": 1416057425, 
        "time_usec": 848288, 
        "lat": 51.7873, 
        "lon": 19.448706, 
        "spd": 3.977, 
        "heading": 102.080002, 
        "fix": 3, 
        "alt": 217.699997, 
        "hdop": 0.0, 
        "vdop": 0.0, 
        "signal_rssi": 0, 
        "noise_rssi": 0, 
        "signal_dbm": "-123", 
        "noise_dbm": "0"
    }, 
    {
        "bssid": "78:F5:FD:E2:16:E1", 
        "source": "78:F5:FD:E2:16:E1", 
        "time_sec": 1416057425, 
        "time_usec": 855819, 
        "lat": 51.7873, 
        "lon": 19.448706, 
        "spd": 3.977, 
        "heading": 102.080002, 
        "fix": 3, 
        "alt": 217.699997, 
        "hdop": 0.0, 
        "vdop": 0.0, 
        "signal_rssi": 0, 
        "noise_rssi": 0, 
        "signal_dbm": "-123", 
        "noise_dbm": "0"
    }, 
    {
        "bssid": "78:F5:FD:E2:16:E1", 
        "source": "78:F5:FD:E2:16:E1", 
        "time_sec": 1416057425, 
        "time_usec": 855938, 
        "lat": 51.7873, 
        "lon": 19.448706, 
        "spd": 3.977, 
        "heading": 102.080002, 
        "fix": 3, 
        "alt": 217.699997, 
        "hdop": 0.0, 
        "vdop": 0.0, 
        "signal_rssi": 0, 
        "noise_rssi": 0, 
        "signal_dbm": "-123", 
        "noise_dbm": "0"
    }, 
    {
        "bssid": "78:F5:FD:E2:16:E1", 
        "source": "C8:14:79:8E:34:A8", 
        "time_sec": 1416057425, 
        "time_usec": 857051, 
        "lat": 51.7873, 
        "lon": 19.448706, 
        "spd": 3.977, 
        "heading": 102.080002, 
        "fix": 3, 
        "alt": 217.699997, 
        "hdop": 0.0, 
        "vdop": 0.0, 
        "signal_rssi": 0, 
        "noise_rssi": 0, 
        "signal_dbm": "-123", 
        "noise_dbm": "0"
    }, 
    {
        "bssid": "78:F5:FD:E2:16:E1", 
        "source": "C8:14:79:8E:34:A8", 
        "time_sec": 1416057425, 
        "time_usec": 857128, 
        "lat": 51.7873, 
        "lon": 19.448706, 
        "spd": 3.977, 
        "heading": 102.080002, 
        "fix": 3, 
        "alt": 217.699997, 
        "hdop": 0.0, 
        "vdop": 0.0, 
        "signal_rssi": 0, 
        "noise_rssi": 0, 
        "signal_dbm": "-123", 
        "noise_dbm": "0"
    }, 
    {
        "bssid": "78:F5:FD:E2:16:E1", 
        "source": "78:F5:FD:E2:16:E1", 
        "time_sec": 1416057425, 
        "time_usec": 876181, 
        "lat": 51.7873, 
        "lon": 19.448706, 
        "spd": 3.977, 
        "heading": 102.080002, 
        "fix": 3, 
        "alt": 217.699997, 
        "hdop": 0.0, 
        "vdop": 0.0, 
        "signal_rssi": 0, 
        "noise_rssi": 0, 
        "signal_dbm": "-123", 
        "noise_dbm": "0"
    }, 
    {
        "bssid": "78:F5:FD:E2:16:E1", 
        "source": "78:F5:FD:E2:16:E1", 
        "time_sec": 1416057425, 
        "time_usec": 876245, 
        "lat": 51.7873, 
        "lon": 19.448706, 
        "spd": 3.977, 
        "heading": 102.080002, 
        "fix": 3, 
        "alt": 217.699997, 
        "hdop": 0.0, 
        "vdop": 0.0, 
        "signal_rssi": 0, 
        "noise_rssi": 0, 
        "signal_dbm": "-123", 
        "noise_dbm": "0"
    }, 
    {
        "bssid": "78:F5:FD:E2:16:E1", 
        "source": "78:F5:FD:E2:16:E1", 
        "time_sec": 1416057425, 
        "time_usec": 877211, 
        "lat": 51.7873, 
        "lon": 19.448706, 
        "spd": 3.977, 
        "heading": 102.080002, 
        "fix": 3, 
        "alt": 217.699997, 
        "hdop": 0.0, 
        "vdop": 0.0, 
        "signal_rssi": 0, 
        "noise_rssi": 0, 
        "signal_dbm": "-123", 
        "noise_dbm": "0"
    }, 
    {
        "bssid": "78:F5:FD:E2:16:E1", 
        "source": "C8:14:79:8E:34:A8", 
        "time_sec": 1416057425, 
        "time_usec": 877288, 
        "lat": 51.7873, 
        "lon": 19.448706, 
        "spd": 3.977, 
        "heading": 102.080002, 
        "fix": 3, 
        "alt": 217.699997, 
        "hdop": 0.0, 
        "vdop": 0.0, 
        "signal_rssi": 0, 
        "noise_rssi": 0, 
        "signal_dbm": "-123", 
        "noise_dbm": "0"
    }, 
    {
        "bssid": "00:23:32:73:8C:2D", 
        "source": "00:23:32:73:8C:2D", 
        "time_sec": 1416057425, 
        "time_usec": 886566, 
        "lat": 51.7873, 
