[
    {
        "bssid": "00:00:00:00:00:00", 
        "source": "00:00:00:00:00:00", 
        "time_sec": 1416057406, 
        "time_usec": 839573, 
        "lat": 51.787189, 
        "lon": 19.448116, 
        "spd": 0.972, 
        "heading": 0.0, 
        "fix": 3, 
        "alt": 195.699997, 
        "hdop": 0.0, 
        "vdop": 0.0, 
        "signal_rssi": 0, 
        "noise_rssi": 0, 
        "signal_dbm": "113", 
        "noise_dbm": "0"
    }, 
    {
        "bssid": "00:00:00:00:00:00", 
        "source": "00:00:00:00:00:00", 
        "time_sec": 1416057406, 
        "time_usec": 840406, 
        "lat": 51.787189, 
        "lon": 19.448116, 
        "spd": 0.972, 
        "heading": 0.0, 
        "fix": 3, 
        "alt": 195.699997, 
        "hdop": 0.0, 
        "vdop": 0.0, 
        "signal_rssi": 0, 
        "noise_rssi": 0, 
        "signal_dbm": "113", 
        "noise_dbm": "0"
    }, 
    {
        "bssid": "00:00:00:00:00:00", 
        "source": "00:00:00:00:00:00", 
        "time_sec": 1416057406, 
        "time_usec": 843121, 
        "lat": 51.787189, 
        "lon": 19.448116, 
        "spd": 0.972, 
        "heading": 0.0, 
        "fix": 3, 
        "alt": 195.699997, 
        "hdop": 0.0, 
        "vdop": 0.0, 
        "signal_rssi": 0, 
        "noise_rssi": 0, 
        "signal_dbm": "113", 
        "noise_dbm": "0"
    }, 
    {
        "bssid": "00:00:00:00:00:00", 
        "source": "00:00:00:00:00:00", 
        "time_sec": 1416057406, 
        "time_usec": 843183, 
        "lat": 51.787189, 
        "lon": 19.448116, 
        "spd": 0.972, 
        "heading": 0.0, 
        "fix": 3, 
        "alt": 195.699997, 
        "hdop": 0.0, 
        "vdop": 0.0, 
        "signal_rssi": 0, 
        "noise_rssi": 0, 
        "signal_dbm": "113", 
        "noise_dbm": "0"
    }, 
    {
        "bssid": "00:00:00:00:00:00", 
        "source": "00:00:00:00:00:00", 
        "time_sec": 1416057406, 
        "time_usec": 844211, 
        "lat": 51.787189, 
        "lon": 19.448116, 
        "spd": 0.972, 
        "heading": 0.0, 
        "fix": 3, 
        "alt": 195.699997, 
        "hdop": 0.0, 
        "vdop": 0.0, 
        "signal_rssi": 0, 
        "noise_rssi": 0, 
        "signal_dbm": "113", 
        "noise_dbm": "0"
    }, 
    {
        "bssid": "00:00:00:00:00:00", 
        "source": "00:00:00:00:00:00", 
        "time_sec": 1416057406, 
        "time_usec": 848029, 
        "lat": 51.787189, 
        "lon": 19.448116, 
        "spd": 0.972, 
        "heading": 0.0, 
        "fix": 3, 
        "alt": 195.699997, 
        "hdop": 0.0, 
        "vdop": 0.0, 
        "signal_rssi": 0, 
        "noise_rssi": 0, 
        "signal_dbm": "113", 
        "noise_dbm": "0"
    }, 
    {
        "bssid": "00:00:00:00:00:00", 
        "source": "00:00:00:00:00:00", 
        "time_sec": 1416057406, 
        "time_usec": 852701, 
        "lat": 51.787189, 
        "lon": 19.448116, 
        "spd": 0.972, 
        "heading": 0.0, 
        "fix": 3, 
        "alt": 195.699997, 
        "hdop": 0.0, 
        "vdop": 0.0, 
        "signal_rssi": 0, 
        "noise_rssi": 0, 
        "signal_dbm": "113", 
        "noise_dbm": "0"
    }, 
    {
        "bssid": "00:00:00:00:00:00", 
        "source": "00:00:00:00:00:00", 
        "time_sec": 1416057406, 
        "time_usec": 854321, 
        "lat": 51.787189, 
        "lon": 19.448116, 
        "spd": 0.972, 
        "heading": 0.0, 
        "fix": 3, 
        "alt": 195.699997, 
        "hdop": 0.0, 
        "vdop": 0.0, 
        "signal_rssi": 0, 
        "noise_rssi": 0, 
        "signal_dbm": "113", 
        "noise_dbm": "0"
    }, 
    {
        "bssid": "00:00:00:00:00:00", 
        "source": "00:00:00:00:00:00", 
        "time_sec": 1416057406, 
        "time_usec": 857339, 
        "lat": 51.787189, 
        "lon": 19.448116, 
        "spd": 0.972, 
        "heading": 0.0, 
        "fix": 3, 
        "alt": 195.699997, 
        "hdop": 0.0, 
        "vdop": 0.0, 
        "signal_rssi": 0, 
        "noise_rssi": 0, 
        "signal_dbm": "113", 
        "noise_dbm": "0"
    }, 
    {
        "bssid": "00:00:00:00:00:00", 
        "source": "00:00:00:00:00:00", 
        "time_sec": 1416057406, 
        "time_usec": 858484, 
        "lat": 51.787189, 
        "lon": 19.448116, 
        "spd": 0.972, 
        "heading": 0.0, 
        "fix": 3, 
        "alt": 195.699997, 
        "hdop": 0.0, 
        "vdop": 0.0, 
        "signal_rssi": 0, 
        "noise_rssi": 0, 
        "signal_dbm": "113", 
        "noise_dbm": "0"
    }, 
    {
        "bssid": "00:00:00:00:00:00", 
        "source": "00:00:00:00:00:00", 
        "time_sec": 1416057406, 
        "time_usec": 864939, 
        "lat": 51.787189, 
        "lon": 19.448116, 
        "spd": 0.972, 
        "heading": 0.0, 
        "fix": 3, 
        "alt": 195.699997, 
        "hdop": 0.0, 
        "vdop": 0.0, 
        "signal_rssi": 0, 
        "noise_rssi": 0, 
        "signal_dbm": "113", 
        "noise_dbm": "0"
    }, 
    {
        "bssid": "00:00:00:00:00:00", 
        "source": "00:00:00:00:00:00", 
        "time_sec": 1416057406, 
        "time_usec": 873130, 
        "lat": 51.787189, 
        "lon": 19.448116, 
        "spd": 0.972, 
        "heading": 0.0, 
        "fix": 3, 
        "alt": 195.699997, 
        "hdop": 0.0, 
        "vdop": 0.0, 
        "signal_rssi": 0, 
        "noise_rssi": 0, 
        "signal_dbm": "113", 
        "noise_dbm": "0"
    }, 
    {
        "bssid": "00:00:00:00:00:00", 
        "source": "00:00:00:00:00:00", 
        "time_sec": 1416057406, 
        "time_usec": 874333, 
        "lat": 51.787189, 
        "lon": 19.448116, 
        "spd": 0.972, 
        "heading": 0.0, 
        "fix": 3, 
        "alt": 195.699997, 
        "hdop": 0.0, 
        "vdop": 0.0, 
        "signal_rssi": 0, 
        "noise_rssi": 0, 
        "signal_dbm": "113", 
        "noise_dbm": "0"
    }, 
    {
        "bssid": "00:00:00:00:00:00", 
        "source": "00:00:00:00:00:00", 
        "time_sec": 1416057406, 
        "time_usec": 878512, 
        "lat": 51.787189, 
        "lon": 19.448116, 
        "spd": 0.972, 
        "heading": 0.0, 
        "fix": 3, 
        "alt": 195.699997, 
        "hdop": 0.0, 
        "vdop": 0.0, 
        "signal_rssi": 0, 
        "noise_rssi": 0, 
        "signal_dbm": "113", 
        "noise_dbm": "0"
    }, 
    {
        "bssid": "00:00:00:00:00:00", 
        "source": "00:00:00:00:00:00", 
        "time_sec": 1416057406, 
        "time_usec": 881277, 
        "lat": 51.787189, 
        "lon": 19.448116, 
        "spd": 0.972, 
        "heading": 0.0, 
        "fix": 3, 
        "alt": 195.699997, 
        "hdop": 0.0, 
        "vdop": 0.0, 
        "signal_rssi": 0, 
        "noise_rssi": 0, 
        "signal_dbm": "113", 
        "noise_dbm": "0"
    }, 
    {
        "bssid": "00:00:00:00:00:00", 
        "source": "00:00:00:00:00:00", 
        "time_sec": 1416057406, 
        "time_usec": 882669, 
        "lat": 51.787189, 
        "lon": 19.448116, 
        "spd": 0.972, 
        "heading": 0.0, 
        "fix": 3, 
        "alt": 195.699997, 
        "hdop": 0.0, 
        "vdop": 0.0, 
        "signal_rssi": 0, 
        "noise_rssi": 0, 
        "signal_dbm": "113", 
        "noise_dbm": "0"
    }, 
    {
        "bssid": "00:00:00:00:00:00", 
        "source": "00:00:00:00:00:00", 
        "time_sec": 1416057406, 
        "time_usec": 909221, 
        "lat": 51.787189, 
        "lon": 19.448116, 
        "spd": 0.972, 
        "heading": 0.0, 
        "fix": 3, 
        "alt": 195.699997, 
        "hdop": 0.0, 
        "vdop": 0.0, 
        "signal_rssi": 0, 
        "noise_rssi": 0, 
        "signal_dbm": "113", 
        "noise_dbm": "0"
    }, 
    {
        "bssid": "00:00:00:00:00:00", 
        "source": "00:00:00:00:00:00", 
        "time_sec": 1416057406, 
        "time_usec": 911530, 
        "lat": 51.787189, 
        "lon": 19.448116, 
        "spd": 0.972, 
        "heading": 0.0, 
        "fix": 3, 
        "alt": 195.699997, 
        "hdop": 0.0, 
        "vdop": 0.0, 
        "signal_rssi": 0, 
        "noise_rssi": 0, 
        "signal_dbm": "113", 
        "noise_dbm": "0"
    }, 
    {
        "bssid": "00:00:00:00:00:00", 
        "source": "00:00:00:00:00:00", 
        "time_sec": 1416057406, 
        "time_usec": 912455, 
        "lat": 51.787189, 
        "lon": 19.448116, 
        "spd": 0.972, 
        "heading": 0.0, 
        "fix": 3, 
        "alt": 195.699997, 
        "hdop": 0.0, 
        "vdop": 0.0, 
        "signal_rssi": 0, 
        "noise_rssi": 0, 
        "signal_dbm": "113", 
        "noise_dbm": "0"
    }, 
    {
        "bssid": "00:00:00:00:00:00", 
        "source": "00:00:00:00:00:00", 
        "time_sec": 1416057406, 
        "time_usec": 958533, 
        "lat": 51.787189, 
        "lon": 19.448116, 
        "spd": 0.972, 
        "heading": 0.0, 
        "fix": 3, 
        "alt": 195.699997, 
        "hdop": 0.0, 
        "vdop": 0.0, 
        "signal_rssi": 0, 
        "noise_rssi": 0, 
        "signal_dbm": "113", 
        "noise_dbm": "0"
    }, 
    {
        "bssid": "00:00:00:00:00:00", 
        "source": "00:00:00:00:00:00", 
        "time_sec": 1416057406, 
        "time_usec": 981963, 
        "lat": 51.787189, 
        "lon": 19.448116, 
        "spd": 0.972, 
        "heading": 0.0, 
        "fix": 3, 
        "alt": 195.699997, 
        "hdop": 0.0, 
        "vdop": 0.0, 
        "signal_rssi": 0, 
        "noise_rssi": 0, 
        "signal_dbm": "113", 
        "noise_dbm": "0"
    }, 
    {
        "bssid": "00:00:00:00:00:00", 
        "source": "00:00:00:00:00:00", 
        "time_sec": 1416057407, 
        "time_usec": 28627, 
        "lat": 51.787189, 
        "lon": 19.448116, 
        "spd": 0.972, 
        "heading": 0.0, 
        "fix": 3, 
        "alt": 195.699997, 
        "hdop": 0.0, 
        "vdop": 0.0, 
        "signal_rssi": 0, 
        "noise_rssi": 0, 
        "signal_dbm": "113", 
        "noise_dbm": "0"
    }, 
    {
        "bssid": "00:00:00:00:00:00", 
        "source": "00:00:00:00:00:00", 
        "time_sec": 1416057407, 
        "time_usec": 85522, 
        "lat": 51.787189, 
        "lon": 19.448116, 
        "spd": 0.972, 
        "heading": 0.0, 
        "fix": 3, 
        "alt": 195.699997, 
        "hdop": 0.0, 
        "vdop": 0.0, 
        "signal_rssi": 0, 
        "noise_rssi": 0, 
        "signal_dbm": "113", 
        "noise_dbm": "0"
    }, 
    {
        "bssid": "00:00:00:00:00:00", 
        "source": "00:00:00:00:00:00", 
        "time_sec": 1416057407, 
        "time_usec": 127277, 
        "lat": 51.787189, 
        "lon": 19.448116, 
        "spd": 0.972, 
        "heading": 0.0, 
        "fix": 3, 
        "alt": 195.699997, 
        "hdop": 0.0, 
        "vdop": 0.0, 
        "signal_rssi": 0, 
        "noise_rssi": 0, 
        "signal_dbm": "113", 
        "noise_dbm": "0"
    }, 
    {
        "bssid": "00:00:00:00:00:00", 
        "source": "00:00:00:00:00:00", 
        "time_sec": 1416057407, 
        "time_usec": 133246, 
        "lat": 51.787189, 
        "lon": 19.448116, 
        "spd": 0.972, 
        "heading": 0.0, 
        "fix": 3, 
        "alt": 195.699997, 
        "hdop": 0.0, 
        "vdop": 0.0, 
        "signal_rssi": 0, 
        "noise_rssi": 0, 
        "signal_dbm": "113", 
        "noise_dbm": "0"
    }, 
    {
        "bssid": "00:00:00:00:00:00", 
        "source": "00:00:00:00:00:00", 
        "time_sec": 1416057407, 
        "time_usec": 135430, 
        "lat": 51.787189, 
        "lon": 19.448116, 
        "spd": 0.972, 
        "heading": 0.0, 
        "fix": 3, 
        "alt": 195.699997, 
        "hdop": 0.0, 
        "vdop": 0.0, 
        "signal_rssi": 0, 
        "noise_rssi": 0, 
        "signal_dbm": "113", 
        "noise_dbm": "0"
    }, 
    {
        "bssid": "00:00:00:00:00:00", 
        "source": "00:00:00:00:00:00", 
        "time_sec": 1416057407, 
        "time_usec": 139487, 
        "lat": 51.787189, 
        "lon": 19.448116, 
        "spd": 0.972, 
        "heading": 0.0, 
        "fix": 3, 
        "alt": 195.699997, 
        "hdop": 0.0, 
        "vdop": 0.0, 
        "signal_rssi": 0, 
        "noise_rssi": 0, 
        "signal_dbm": "113", 
        "noise_dbm": "0"
    }, 
    {
        "bssid": "00:00:00:00:00:00", 
        "source": "00:00:00:00:00:00", 
        "time_sec": 1416057407, 
        "time_usec": 139559, 
        "lat": 51.787189, 
        "lon": 19.448116, 
        "spd": 0.972, 
        "heading": 0.0, 
        "fix": 3, 
        "alt": 195.699997, 
        "hdop": 0.0, 
        "vdop": 0.0, 
        "signal_rssi": 0, 
        "noise_rssi": 0, 
        "signal_dbm": "113", 
        "noise_dbm": "0"
    }, 
    {
        "bssid": "00:00:00:00:00:00", 
        "source": "00:00:00:00:00:00", 
        "time_sec": 1416057407, 
        "time_usec": 140833, 
        "lat": 51.787189, 
        "lon": 19.448116, 
        "spd": 0.972, 
        "heading": 0.0, 
        "fix": 3, 
        "alt": 195.699997, 
        "hdop": 0.0, 
        "vdop": 0.0, 
        "signal_rssi": 0, 
        "noise_rssi": 0, 
        "signal_dbm": "113", 
        "noise_dbm": "0"
    }, 
    {
        "bssid": "00:00:00:00:00:00", 
        "source": "00:00:00:00:00:00", 
        "time_sec": 1416057407, 
        "time_usec": 141832, 
        "lat": 51.787189, 
        "lon": 19.448116, 
        "spd": 0.972, 
        "heading": 0.0, 
        "fix": 3, 
        "alt": 195.699997, 
        "hdop": 0.0, 
        "vdop": 0.0, 
        "signal_rssi": 0, 
        "noise_rssi": 0, 
        "signal_dbm": "113", 
        "noise_dbm": "0"
    }, 
    {
        "bssid": "00:00:00:00:00:00", 
        "source": "00:00:00:00:00:00", 
        "time_sec": 1416057407, 
        "time_usec": 143147, 
        "lat": 51.787189, 
        "lon": 19.448116, 
        "spd": 0.972, 
        "heading": 0.0, 
        "fix": 3, 
        "alt": 195.699997, 
        "hdop": 0.0, 
        "vdop": 0.0, 
        "signal_rssi": 0, 
        "noise_rssi": 0, 
        "signal_dbm": "113", 
        "noise_dbm": "0"
    }, 
    {
        "bssid": "00:00:00:00:00:00", 
        "source": "00:00:00:00:00:00", 
        "time_sec": 1416057407, 
        "time_usec": 143220, 
        "lat": 51.787189, 
        "lon": 19.448116, 
        "spd": 0.972, 
        "heading": 0.0, 
        "fix": 3, 
        "alt": 195.699997, 
        "hdop": 0.0, 
        "vdop": 0.0, 
        "signal_rssi": 0, 
        "noise_rssi": 0, 
        "signal_dbm": "113", 
        "noise_dbm": "0"
    }, 
    {
        "bssid": "00:00:00:00:00:00", 
        "source": "00:00:00:00:00:00", 
        "time_sec": 1416057407, 
        "time_usec": 151953, 
        "lat": 51.787189, 
        "lon": 19.448116, 
        "spd": 0.972, 
        "heading": 0.0, 
        "fix": 3, 
        "alt": 195.699997, 
        "hdop": 0.0, 
        "vdop": 0.0, 
        "signal_rssi": 0, 
        "noise_rssi": 0, 
        "signal_dbm": "113", 
        "noise_dbm": "0"
    }, 
    {
        "bssid": "00:00:00:00:00:00", 
        "source": "00:00:00:00:00:00", 
        "time_sec": 1416057407, 
        "time_usec": 168494, 
        "lat": 51.787189, 
        "lon": 19.448116, 
        "spd": 0.972, 
        "heading": 0.0, 
        "fix": 3, 
        "alt": 195.699997, 
        "hdop": 0.0, 
        "vdop": 0.0, 
        "signal_rssi": 0, 
        "noise_rssi": 0, 
        "signal_dbm": "113", 
        "noise_dbm": "0"
    }, 
    {
        "bssid": "00:00:00:00:00:00", 
        "source": "00:00:00:00:00:00", 
        "time_sec": 1416057407, 
        "time_usec": 181738, 
        "lat": 51.787189, 
        "lon": 19.448116, 
        "spd": 0.972, 
        "heading": 0.0, 
        "fix": 3, 
        "alt": 195.699997, 
        "hdop": 0.0, 
        "vdop": 0.0, 
        "signal_rssi": 0, 
        "noise_rssi": 0, 
        "signal_dbm": "-123", 
        "noise_dbm": "0"
    }, 
    {
        "bssid": "00:00:00:00:00:00", 
        "source": "00:00:00:00:00:00", 
        "time_sec": 1416057407, 
        "time_usec": 182518, 
        "lat": 51.787189, 
        "lon": 19.448116, 
        "spd": 0.972, 
        "heading": 0.0, 
        "fix": 3, 
        "alt": 195.699997, 
        "hdop": 0.0, 
        "vdop": 0.0, 
        "signal_rssi": 0, 
        "noise_rssi": 0, 
        "signal_dbm": "-123", 
        "noise_dbm": "0"
    }, 
    {
        "bssid": "00:00:00:00:00:00", 
        "source": "00:00:00:00:00:00", 
        "time_sec": 1416057407, 
        "time_usec": 185193, 
        "lat": 51.787189, 
        "lon": 19.448116, 
        "spd": 0.972, 
        "heading": 0.0, 
        "fix": 3, 
        "alt": 195.699997, 
        "hdop": 0.0, 
        "vdop": 0.0, 
        "signal_rssi": 0, 
        "noise_rssi": 0, 
        "signal_dbm": "-123", 
        "noise_dbm": "0"
    }, 
    {
        "bssid": "00:00:00:00:00:00", 
        "source": "00:00:00:00:00:00", 
        "time_sec": 1416057407, 
        "time_usec": 188210, 
        "lat": 51.787189, 
        "lon": 19.448116, 
        "spd": 0.972, 
        "heading": 0.0, 
        "fix": 3, 
        "alt": 195.699997, 
        "hdop": 0.0, 
        "vdop": 0.0, 
        "signal_rssi": 0, 
        "noise_rssi": 0, 
        "signal_dbm": "-123", 
        "noise_dbm": "0"
    }, 
    {
        "bssid": "00:00:00:00:00:00", 
        "source": "00:00:00:00:00:00", 
        "time_sec": 1416057407, 
        "time_usec": 198538, 
        "lat": 51.787189, 
        "lon": 19.448116, 
        "spd": 0.972, 
        "heading": 0.0, 
        "fix": 3, 
        "alt": 195.699997, 
        "hdop": 0.0, 
        "vdop": 0.0, 
        "signal_rssi": 0, 
        "noise_rssi": 0, 
        "signal_dbm": "-123", 
        "noise_dbm": "0"
    }, 
    {
        "bssid": "00:00:00:00:00:00", 
        "source": "00:00:00:00:00:00", 
        "time_sec": 1416057407, 
        "time_usec": 200435, 
        "lat": 51.787189, 
        "lon": 19.448116, 
        "spd": 0.972, 
        "heading": 0.0, 
        "fix": 3, 
        "alt": 195.699997, 
        "hdop": 0.0, 
        "vdop": 0.0, 
        "signal_rssi": 0, 
        "noise_rssi": 0, 
        "signal_dbm": "-123", 
        "noise_dbm": "0"
    }, 
    {
        "bssid": "00:00:00:00:00:00", 
        "source": "00:00:00:00:00:00", 
        "time_sec": 1416057407, 
        "time_usec": 224435, 
        "lat": 51.787189, 
        "lon": 19.448116, 
        "spd": 0.972, 
        "heading": 0.0, 
        "fix": 3, 
        "alt": 195.699997, 
        "hdop": 0.0, 
        "vdop": 0.0, 
        "signal_rssi": 0, 
        "noise_rssi": 0, 
        "signal_dbm": "-123", 
        "noise_dbm": "0"
    }, 
    {
        "bssid": "00:00:00:00:00:00", 
        "source": "00:00:00:00:00:00", 
        "time_sec": 1416057407, 
        "time_usec": 233585, 
        "lat": 51.787189, 
        "lon": 19.448116, 
        "spd": 0.972, 
        "heading": 0.0, 
        "fix": 3, 
        "alt": 195.699997, 
        "hdop": 0.0, 
        "vdop": 0.0, 
        "signal_rssi": 0, 
        "noise_rssi": 0, 
        "signal_dbm": "-123", 
        "noise_dbm": "0"
    }, 
    {
        "bssid": "00:00:00:00:00:00", 
        "source": "00:00:00:00:00:00", 
        "time_sec": 1416057407, 
        "time_usec": 243517, 
        "lat": 51.787189, 
        "lon": 19.448116, 
        "spd": 0.972, 
        "heading": 0.0, 
        "fix": 3, 
        "alt": 195.699997, 
        "hdop": 0.0, 
        "vdop": 0.0, 
        "signal_rssi": 0, 
        "noise_rssi": 0, 
        "signal_dbm": "-123", 
        "noise_dbm": "0"
    }, 
    {
        "bssid": "00:00:00:00:00:00", 
        "source": "00:00:00:00:00:00", 
        "time_sec": 1416057407, 
        "time_usec": 250516, 
        "lat": 51.787189, 
        "lon": 19.448116, 
        "spd": 0.972, 
        "heading": 0.0, 
        "fix": 3, 
        "alt": 195.699997, 
        "hdop": 0.0, 
        "vdop": 0.0, 
        "signal_rssi": 0, 
        "noise_rssi": 0, 
        "signal_dbm": "-123", 
        "noise_dbm": "0"
    }, 
    {
        "bssid": "00:00:00:00:00:00", 
        "source": "00:00:00:00:00:00", 
        "time_sec": 1416057407, 
        "time_usec": 253908, 
        "lat": 51.787189, 
        "lon": 19.448116, 
        "spd": 0.972, 
        "heading": 0.0, 
        "fix": 3, 
        "alt": 195.699997, 
        "hdop": 0.0, 
        "vdop": 0.0, 
        "signal_rssi": 0, 
        "noise_rssi": 0, 
        "signal_dbm": "-123", 
        "noise_dbm": "0"
    }, 
    {
        "bssid": "00:00:00:00:00:00", 
        "source": "00:00:00:00:00:00", 
        "time_sec": 1416057407, 
        "time_usec": 253972, 
        "lat": 51.787189, 
        "lon": 19.448116, 
        "spd": 0.972, 
        "heading": 0.0, 
        "fix": 3, 
        "alt": 195.699997, 
        "hdop": 0.0, 
        "vdop": 0.0, 
        "signal_rssi": 0, 
        "noise_rssi": 0, 
        "signal_dbm": "-123", 
        "noise_dbm": "0"
    }, 
    {
        "bssid": "00:00:00:00:00:00", 
        "source": "00:00:00:00:00:00", 
        "time_sec": 1416057407, 
        "time_usec": 257553, 
        "lat": 51.787189, 
        "lon": 19.448116, 
        "spd": 0.972, 
        "heading": 0.0, 
        "fix": 3, 
        "alt": 195.699997, 
        "hdop": 0.0, 
        "vdop": 0.0, 
        "signal_rssi": 0, 
        "noise_rssi": 0, 
        "signal_dbm": "-123", 
        "noise_dbm": "0"
    }, 
    {
        "bssid": "00:00:00:00:00:00", 
        "source": "00:00:00:00:00:00", 
        "time_sec": 1416057407, 
        "time_usec": 258777, 
        "lat": 51.787189, 
        "lon": 19.448116, 
        "spd": 0.972, 
        "heading": 0.0, 
        "fix": 3, 
        "alt": 195.699997, 
        "hdop": 0.0, 
        "vdop": 0.0, 
        "signal_rssi": 0, 
        "noise_rssi": 0, 
        "signal_dbm": "-123", 
        "noise_dbm": "0"
    }, 
    {
        "bssid": "00:00:00:00:00:00", 
        "source": "00:00:00:00:00:00", 
        "time_sec": 1416057407, 
        "time_usec": 258847, 
        "lat": 51.787189, 
        "lon": 19.448116, 
        "spd": 0.972, 
        "heading": 0.0, 
        "fix": 3, 
        "alt": 195.699997, 
        "hdop": 0.0, 
        "vdop": 0.0, 
        "signal_rssi": 0, 
        "noise_rssi": 0, 
        "signal_dbm": "-123", 
        "noise_dbm": "0"
    }, 
    {
        "bssid": "00:00:00:00:00:00", 
        "source": "00:00:00:00:00:00", 
        "time_sec": 1416057407, 
        "time_usec": 266850, 
        "lat": 51.787189, 
        "lon": 19.448116, 
        "spd": 0.972, 
        "heading": 0.0, 
        "fix": 3, 
        "alt": 195.699997, 
        "hdop": 0.0, 
        "vdop": 0.0, 
        "signal_rssi": 0, 
        "noise_rssi": 0, 
        "signal_dbm": "-123", 
        "noise_dbm": "0"
    }, 
    {
        "bssid": "00:00:00:00:00:00", 
        "source": "00:00:00:00:00:00", 
        "time_sec": 1416057407, 
        "time_usec": 273940, 
        "lat": 51.787189, 
        "lon": 19.448116, 
        "spd": 0.972, 
        "heading": 0.0, 
        "fix": 3, 
        "alt": 195.699997, 
        "hdop": 0.0, 
        "vdop": 0.0, 
        "signal_rssi": 0, 
        "noise_rssi": 0, 
        "signal_dbm": "-123", 
        "noise_dbm": "0"
    }, 
    {
        "bssid": "00:00:00:00:00:00", 
        "source": "00:00:00:00:00:00", 
        "time_sec": 1416057407, 
        "time_usec": 275090, 
        "lat": 51.787189, 
        "lon": 19.448116, 
        "spd": 0.972, 
        "heading": 0.0, 
        "fix": 3, 
        "alt": 195.699997, 
        "hdop": 0.0, 
        "vdop": 0.0, 
        "signal_rssi": 0, 
        "noise_rssi": 0, 
        "signal_dbm": "-123", 
        "noise_dbm": "0"
    }, 
    {
        "bssid": "00:00:00:00:00:00", 
        "source": "00:00:00:00:00:00", 
        "time_sec": 1416057407, 
        "time_usec": 283111, 
        "lat": 51.787189, 
        "lon": 19.448116, 
        "spd": 0.972, 
        "heading": 0.0, 
        "fix": 3, 
        "alt": 195.699997, 
        "hdop": 0.0, 
        "vdop": 0.0, 
        "signal_rssi": 0, 
        "noise_rssi": 0, 
        "signal_dbm": "-123", 
        "noise_dbm": "0"
    }, 
    {
        "bssid": "00:00:00:00:00:00", 
        "source": "00:00:00:00:00:00", 
        "time_sec": 1416057407, 
        "time_usec": 283160, 
        "lat": 51.787189, 
        "lon": 19.448116, 
        "spd": 0.972, 
        "heading": 0.0, 
        "fix": 3, 
        "alt": 195.699997, 
        "hdop": 0.0, 
        "vdop": 0.0, 
        "signal_rssi": 0, 
        "noise_rssi": 0, 
        "signal_dbm": "-123", 
        "noise_dbm": "0"
    }, 
    {
        "bssid": "00:00:00:00:00:00", 
        "source": "00:00:00:00:00:00", 
        "time_sec": 1416057407, 
        "time_usec": 285063, 
        "lat": 51.787189, 
        "lon": 19.448116, 
        "spd": 0.972, 
        "heading": 0.0, 
        "fix": 3, 
        "alt": 195.699997, 
        "hdop": 0.0, 
        "vdop": 0.0, 
        "signal_rssi": 0, 
        "noise_rssi": 0, 
        "signal_dbm": "-123", 
        "noise_dbm": "0"
    }, 
    {
        "bssid": "00:00:00:00:00:00", 
        "source": "00:00:00:00:00:00", 
        "time_sec": 1416057407, 
        "time_usec": 286779, 
        "lat": 51.787189, 
        "lon": 19.448116, 
        "spd": 0.972, 
        "heading": 0.0, 
        "fix": 3, 
        "alt": 195.699997, 
        "hdop": 0.0, 
        "vdop": 0.0, 
        "signal_rssi": 0, 
        "noise_rssi": 0, 
        "signal_dbm": "-123", 
        "noise_dbm": "0"
    }, 
    {
        "bssid": "00:00:00:00:00:00", 
        "source": "00:00:00:00:00:00", 
        "time_sec": 1416057407, 
        "time_usec": 288748, 
        "lat": 51.787189, 
        "lon": 19.448116, 
        "spd": 0.972, 
        "heading": 0.0, 
        "fix": 3, 
        "alt": 195.699997, 
        "hdop": 0.0, 
        "vdop": 0.0, 
        "signal_rssi": 0, 
        "noise_rssi": 0, 
        "signal_dbm": "-123", 
        "noise_dbm": "0"
    }, 
    {
        "bssid": "00:00:00:00:00:00", 
        "source": "00:00:00:00:00:00", 
        "time_sec": 1416057407, 
        "time_usec": 289612, 
        "lat": 51.787189, 
        "lon": 19.448116, 
        "spd": 0.972, 
        "heading": 0.0, 
        "fix": 3, 
        "alt": 195.699997, 
        "hdop": 0.0, 
        "vdop": 0.0, 
        "signal_rssi": 0, 
        "noise_rssi": 0, 
        "signal_dbm": "-123", 
        "noise_dbm": "0"
    }, 
    {
        "bssid": "00:00:00:00:00:00", 
        "source": "00:00:00:00:00:00", 
        "time_sec": 1416057407, 
        "time_usec": 290761, 
        "lat": 51.787189, 
        "lon": 19.448116, 
        "spd": 0.972, 
        "heading": 0.0, 
        "fix": 3, 
        "alt": 195.699997, 
        "hdop": 0.0, 
        "vdop": 0.0, 
        "signal_rssi": 0, 
        "noise_rssi": 0, 
        "signal_dbm": "-123", 
        "noise_dbm": "0"
    }, 
    {
        "bssid": "00:00:00:00:00:00", 
        "source": "00:00:00:00:00:00", 
        "time_sec": 1416057407, 
        "time_usec": 293509, 
        "lat": 51.787189, 
        "lon": 19.448116, 
        "spd": 0.972, 
        "heading": 0.0, 
        "fix": 3, 
        "alt": 195.699997, 
        "hdop": 0.0, 
        "vdop": 0.0, 
        "signal_rssi": 0, 
        "noise_rssi": 0, 
        "signal_dbm": "-123", 
        "noise_dbm": "0"
    }, 
    {
        "bssid": "00:00:00:00:00:00", 
        "source": "00:00:00:00:00:00", 
        "time_sec": 1416057407, 
        "time_usec": 293542, 
        "lat": 51.787189, 
        "lon": 19.448116, 
        "spd": 0.972, 
        "heading": 0.0, 
        "fix": 3, 
        "alt": 195.699997, 
        "hdop": 0.0, 
        "vdop": 0.0, 
        "signal_rssi": 0, 
        "noise_rssi": 0, 
        "signal_dbm": "-123", 
        "noise_dbm": "0"
    }, 
    {
        "bssid": "00:00:00:00:00:00", 
        "source": "00:00:00:00:00:00", 
        "time_sec": 1416057407, 
        "time_usec": 294796, 
        "lat": 51.787189, 
        "lon": 19.448116, 
        "spd": 0.972, 
        "heading": 0.0, 
        "fix": 3, 
        "alt": 195.699997, 
        "hdop": 0.0, 
        "vdop": 0.0, 
        "signal_rssi": 0, 
        "noise_rssi": 0, 
        "signal_dbm": "-123", 
        "noise_dbm": "0"
    }, 
    {
        "bssid": "00:00:00:00:00:00", 
        "source": "00:00:00:00:00:00", 
        "time_sec": 1416057407, 
        "time_usec": 296113, 
        "lat": 51.787189, 
        "lon": 19.448116, 
        "spd": 0.972, 
        "heading": 0.0, 
        "fix": 3, 
        "alt": 195.699997, 
        "hdop": 0.0, 
        "vdop": 0.0, 
        "signal_rssi": 0, 
        "noise_rssi": 0, 
        "signal_dbm": "-123", 
        "noise_dbm": "0"
    }, 
    {
        "bssid": "00:00:00:00:00:00", 
        "source": "00:00:00:00:00:00", 
        "time_sec": 1416057407, 
        "time_usec": 298578, 
        "lat": 51.787189, 
        "lon": 19.448116, 
        "spd": 0.972, 
        "heading": 0.0, 
        "fix": 3, 
        "alt": 195.699997, 
        "hdop": 0.0, 
        "vdop": 0.0, 
        "signal_rssi": 0, 
        "noise_rssi": 0, 
        "signal_dbm": "-123", 
        "noise_dbm": "0"
    }, 
    {
        "bssid": "00:00:00:00:00:00", 
        "source": "00:00:00:00:00:00", 
        "time_sec": 1416057407, 
        "time_usec": 299770, 
        "lat": 51.787189, 
        "lon": 19.448116, 
        "spd": 0.972, 
        "heading": 0.0, 
        "fix": 3, 
        "alt": 195.699997, 
        "hdop": 0.0, 
        "vdop": 0.0, 
        "signal_rssi": 0, 
        "noise_rssi": 0, 
        "signal_dbm": "-123", 
        "noise_dbm": "0"
    }, 
    {
        "bssid": "00:00:00:00:00:00", 
        "source": "00:00:00:00:00:00", 
        "time_sec": 1416057407, 
        "time_usec": 300873, 
        "lat": 51.787189, 
        "lon": 19.448116, 
        "spd": 0.972, 
        "heading": 0.0, 
        "fix": 3, 
        "alt": 195.699997, 
        "hdop": 0.0, 
        "vdop": 0.0, 
        "signal_rssi": 0, 
        "noise_rssi": 0, 
        "signal_dbm": "-123", 
        "noise_dbm": "0"
    }, 
    {
        "bssid": "00:00:00:00:00:00", 
        "source": "00:00:00:00:00:00", 
        "time_sec": 1416057407, 
        "time_usec": 332003, 
        "lat": 51.787189, 
        "lon": 19.448116, 
        "spd": 0.972, 
        "heading": 0.0, 
        "fix": 3, 
        "alt": 195.699997, 
        "hdop": 0.0, 
        "vdop": 0.0, 
        "signal_rssi": 0, 
        "noise_rssi": 0, 
        "signal_dbm": "-123", 
        "noise_dbm": "0"
    }, 
    {
        "bssid": "00:00:00:00:00:00", 
        "source": "00:00:00:00:00:00", 
        "time_sec": 1416057407, 
        "time_usec": 333398, 
        "lat": 51.787189, 
        "lon": 19.448116, 
        "spd": 0.972, 
        "heading": 0.0, 
        "fix": 3, 
        "alt": 195.699997, 
        "hdop": 0.0, 
        "vdop": 0.0, 
        "signal_rssi": 0, 
        "noise_rssi": 0, 
        "signal_dbm": "-123", 
        "noise_dbm": "0"
    }, 
    {
        "bssid": "00:00:00:00:00:00", 
        "source": "00:00:00:00:00:00", 
        "time_sec": 1416057407, 
        "time_usec": 336514, 
        "lat": 51.787189, 
        "lon": 19.448116, 
        "spd": 0.972, 
        "heading": 0.0, 
        "fix": 3, 
        "alt": 195.699997, 
        "hdop": 0.0, 
        "vdop": 0.0, 
        "signal_rssi": 0, 
        "noise_rssi": 0, 
        "signal_dbm": "-123", 
        "noise_dbm": "0"
    }, 
    {
        "bssid": "00:00:00:00:00:00", 
        "source": "00:00:00:00:00:00", 
        "time_sec": 1416057407, 
        "time_usec": 342147, 
        "lat": 51.787189, 
        "lon": 19.448116, 
        "spd": 0.972, 
        "heading": 0.0, 
        "fix": 3, 
        "alt": 195.699997, 
        "hdop": 0.0, 
        "vdop": 0.0, 
        "signal_rssi": 0, 
        "noise_rssi": 0, 
        "signal_dbm": "-123", 
        "noise_dbm": "0"
    }, 
    {
        "bssid": "00:00:00:00:00:00", 
        "source": "00:00:00:00:00:00", 
        "time_sec": 1416057407, 
        "time_usec": 343278, 
        "lat": 51.787189, 
        "lon": 19.448116, 
        "spd": 0.972, 
        "heading": 0.0, 
        "fix": 3, 
        "alt": 195.699997, 
        "hdop": 0.0, 
        "vdop": 0.0, 
        "signal_rssi": 0, 
        "noise_rssi": 0, 
        "signal_dbm": "-123", 
        "noise_dbm": "0"
    }, 
    {
        "bssid": "00:00:00:00:00:00", 
        "source": "00:00:00:00:00:00", 
        "time_sec": 1416057407, 
        "time_usec": 345022, 
        "lat": 51.787189, 
        "lon": 19.448116, 
        "spd": 0.972, 
        "heading": 0.0, 
        "fix": 3, 
        "alt": 195.699997, 
        "hdop": 0.0, 
        "vdop": 0.0, 
        "signal_rssi": 0, 
        "noise_rssi": 0, 
        "signal_dbm": "-123", 
        "noise_dbm": "0"
    }, 
    {
        "bssid": "00:00:00:00:00:00", 
        "source": "00:00:00:00:00:00", 
        "time_sec": 1416057407, 
        "time_usec": 345077, 
        "lat": 51.787189, 
        "lon": 19.448116, 
        "spd": 0.972, 
        "heading": 0.0, 
        "fix": 3, 
        "alt": 195.699997, 
        "hdop": 0.0, 
        "vdop": 0.0, 
        "signal_rssi": 0, 
        "noise_rssi": 0, 
        "signal_dbm": "-123", 
        "noise_dbm": "0"
    }, 
    {
        "bssid": "00:00:00:00:00:00", 
        "source": "00:00:00:00:00:00", 
        "time_sec": 1416057407, 
        "time_usec": 350867, 
        "lat": 51.787189, 
        "lon": 19.448116, 
        "spd": 0.972, 
        "heading": 0.0, 
        "fix": 3, 
        "alt": 195.699997, 
        "hdop": 0.0, 
        "vdop": 0.0, 
        "signal_rssi": 0, 
        "noise_rssi": 0, 
        "signal_dbm": "-123", 
        "noise_dbm": "0"
    }, 
    {
        "bssid": "00:00:00:00:00:00", 
        "source": "00:00:00:00:00:00", 
        "time_sec": 1416057407, 
        "time_usec": 362855, 
        "lat": 51.787189, 
        "lon": 19.448116, 
        "spd": 0.972, 
        "heading": 0.0, 
        "fix": 3, 
        "alt": 195.699997, 
        "hdop": 0.0, 
        "vdop": 0.0, 
        "signal_rssi": 0, 
        "noise_rssi": 0, 
        "signal_dbm": "-123", 
        "noise_dbm": "0"
    }, 
    {
        "bssid": "00:00:00:00:00:00", 
        "source": "00:00:00:00:00:00", 
        "time_sec": 1416057407, 
        "time_usec": 363374, 
        "lat": 51.787189, 
        "lon": 19.448116, 
        "spd": 0.972, 
        "heading": 0.0, 
        "fix": 3, 
        "alt": 195.699997, 
        "hdop": 0.0, 
        "vdop": 0.0, 
        "signal_rssi": 0, 
        "noise_rssi": 0, 
        "signal_dbm": "-123", 
        "noise_dbm": "0"
    }, 
    {
        "bssid": "00:00:00:00:00:00", 
        "source": "00:00:00:00:00:00", 
        "time_sec": 1416057407, 
        "time_usec": 370644, 
        "lat": 51.787189, 
        "lon": 19.448116, 
        "spd": 0.972, 
        "heading": 0.0, 
        "fix": 3, 
        "alt": 195.699997, 
        "hdop": 0.0, 
        "vdop": 0.0, 
        "signal_rssi": 0, 
        "noise_rssi": 0, 
        "signal_dbm": "-123", 
        "noise_dbm": "0"
    }, 
    {
        "bssid": "00:00:00:00:00:00", 
        "source": "00:00:00:00:00:00", 
        "time_sec": 1416057407, 
        "time_usec": 384098, 
        "lat": 51.787189, 
        "lon": 19.448116, 
        "spd": 0.972, 
        "heading": 0.0, 
        "fix": 3, 
        "alt": 195.699997, 
        "hdop": 0.0, 
        "vdop": 0.0, 
        "signal_rssi": 0, 
        "noise_rssi": 0, 
        "signal_dbm": "-123", 
        "noise_dbm": "0"
    }, 
    {
        "bssid": "00:00:00:00:00:00", 
        "source": "00:00:00:00:00:00", 
        "time_sec": 1416057407, 
        "time_usec": 384132, 
        "lat": 51.787189, 
        "lon": 19.448116, 
        "spd": 0.972, 
        "heading": 0.0, 
        "fix": 3, 
        "alt": 195.699997, 
        "hdop": 0.0, 
        "vdop": 0.0, 
        "signal_rssi": 0, 
        "noise_rssi": 0, 
        "signal_dbm": "-123", 
        "noise_dbm": "0"
    }, 
    {
        "bssid": "00:00:00:00:00:00", 
        "source": "00:00:00:00:00:00", 
        "time_sec": 1416057407, 
        "time_usec": 389803, 
        "lat": 51.787189, 
        "lon": 19.448116, 
        "spd": 0.972, 
        "heading": 0.0, 
        "fix": 3, 
        "alt": 195.699997, 
        "hdop": 0.0, 
        "vdop": 0.0, 
        "signal_rssi": 0, 
        "noise_rssi": 0, 
        "signal_dbm": "-123", 
        "noise_dbm": "0"
    }, 
    {
        "bssid": "00:00:00:00:00:00", 
        "source": "00:00:00:00:00:00", 
        "time_sec": 1416057407, 
        "time_usec": 422839, 
        "lat": 51.787189, 
        "lon": 19.448116, 
        "spd": 0.972, 
        "heading": 0.0, 
        "fix": 3, 
        "alt": 195.699997, 
        "hdop": 0.0, 
        "vdop": 0.0, 
        "signal_rssi": 0, 
        "noise_rssi": 0, 
        "signal_dbm": "-123", 
        "noise_dbm": "0"
    }, 
    {
        "bssid": "00:00:00:00:00:00", 
        "source": "00:00:00:00:00:00", 
        "time_sec": 1416057410, 
        "time_usec": 352607, 
        "lat": 51.787228, 
        "lon": 19.448154, 
        "spd": 0.972, 
        "heading": 0.0, 
        "fix": 3, 
        "alt": 195.5, 
        "hdop": 0.0, 
        "vdop": 0.0, 
        "signal_rssi": 0, 
        "noise_rssi": 0, 
        "signal_dbm": "108", 
        "noise_dbm": "0"
    }, 
    {
        "bssid": "00:00:00:00:00:00", 
        "source": "00:00:00:00:00:00", 
        "time_sec": 1416057410, 
        "time_usec": 386612, 
        "lat": 51.787228, 
        "lon": 19.448154, 
        "spd": 0.972, 
        "heading": 0.0, 
        "fix": 3, 
        "alt": 195.5, 
        "hdop": 0.0, 
        "vdop": 0.0, 
        "signal_rssi": 0, 
        "noise_rssi": 0, 
        "signal_dbm": "108", 
        "noise_dbm": "0"
    }, 
    {
        "bssid": "00:00:00:00:00:00", 
        "source": "00:00:00:00:00:00", 
        "time_sec": 1416057411, 
        "time_usec": 455916, 
        "lat": 51.787231, 
        "lon": 19.448162, 
        "spd": 0.972, 
        "heading": 0.0, 
        "fix": 3, 
        "alt": 195.0, 
        "hdop": 0.0, 
        "vdop": 0.0, 
        "signal_rssi": 0, 
        "noise_rssi": 0, 
        "signal_dbm": "113", 
        "noise_dbm": "0"
    }, 
    {
        "bssid": "00:00:00:00:00:00", 
        "source": "00:00:00:00:00:00", 
        "time_sec": 1416057411, 
        "time_usec": 481076, 
        "lat": 51.787231, 
        "lon": 19.448162, 
        "spd": 0.972, 
        "heading": 0.0, 
        "fix": 3, 
        "alt": 195.0, 
        "hdop": 0.0, 
        "vdop": 0.0, 
        "signal_rssi": 0, 
        "noise_rssi": 0, 
        "signal_dbm": "113", 
        "noise_dbm": "0"
    }, 
    {
        "bssid": "00:00:00:00:00:00", 
        "source": "00:00:00:00:00:00", 
        "time_sec": 1416057411, 
        "time_usec": 483790, 
        "lat": 51.787231, 
        "lon": 19.448162, 
        "spd": 0.972, 
        "heading": 0.0, 
        "fix": 3, 
        "alt": 195.0, 
        "hdop": 0.0, 
        "vdop": 0.0, 
        "signal_rssi": 0, 
        "noise_rssi": 0, 
        "signal_dbm": "113", 
        "noise_dbm": "0"
    }, 
    {
        "bssid": "00:00:00:00:00:00", 
        "source": "00:00:00:00:00:00", 
        "time_sec": 1416057411, 
        "time_usec": 485159, 
        "lat": 51.787231, 
        "lon": 19.448162, 
        "spd": 0.972, 
        "heading": 0.0, 
        "fix": 3, 
        "alt": 195.0, 
        "hdop": 0.0, 
        "vdop": 0.0, 
        "signal_rssi": 0, 
        "noise_rssi": 0, 
        "signal_dbm": "113", 
        "noise_dbm": "0"
    }, 
    {
        "bssid": "00:00:00:00:00:00", 
        "source": "00:00:00:00:00:00", 
        "time_sec": 1416057411, 
        "time_usec": 486293, 
        "lat": 51.787231, 
        "lon": 19.448162, 
        "spd": 0.972, 
        "heading": 0.0, 
        "fix": 3, 
        "alt": 195.0, 
        "hdop": 0.0, 
        "vdop": 0.0, 
        "signal_rssi": 0, 
        "noise_rssi": 0, 
        "signal_dbm": "113", 
        "noise_dbm": "0"
    }, 
    {
        "bssid": "00:00:00:00:00:00", 
        "source": "00:00:00:00:00:00", 
        "time_sec": 1416057411, 
        "time_usec": 489557, 
        "lat": 51.787231, 
        "lon": 19.448162, 
        "spd": 0.972, 
        "heading": 0.0, 
        "fix": 3, 
        "alt": 195.0, 
        "hdop": 0.0, 
        "vdop": 0.0, 
        "signal_rssi": 0, 
        "noise_rssi": 0, 
        "signal_dbm": "113", 
        "noise_dbm": "0"
    }, 
    {
        "bssid": "00:00:00:00:00:00", 
        "source": "00:00:00:00:00:00", 
        "time_sec": 1416057411, 
        "time_usec": 492094, 
        "lat": 51.787231, 
        "lon": 19.448162, 
        "spd": 0.972, 
        "heading": 0.0, 
        "fix": 3, 
        "alt": 195.0, 
        "hdop": 0.0, 
        "vdop": 0.0, 
        "signal_rssi": 0, 
        "noise_rssi": 0, 
        "signal_dbm": "113", 
        "noise_dbm": "0"
    }, 
    {
        "bssid": "00:00:00:00:00:00", 
        "source": "00:00:00:00:00:00", 
        "time_sec": 1416057411, 
        "time_usec": 493581, 
        "lat": 51.787231, 
        "lon": 19.448162, 
        "spd": 0.972, 
        "heading": 0.0, 
        "fix": 3, 
        "alt": 195.0, 
        "hdop": 0.0, 
        "vdop": 0.0, 
        "signal_rssi": 0, 
        "noise_rssi": 0, 
        "signal_dbm": "113", 
        "noise_dbm": "0"
    }, 
    {
        "bssid": "00:00:00:00:00:00", 
        "source": "00:00:00:00:00:00", 
        "time_sec": 1416057411, 
        "time_usec": 495744, 
        "lat": 51.787231, 
        "lon": 19.448162, 
        "spd": 0.972, 
        "heading": 0.0, 
        "fix": 3, 
        "alt": 195.0, 
        "hdop": 0.0, 
        "vdop": 0.0, 
        "signal_rssi": 0, 
        "noise_rssi": 0, 
        "signal_dbm": "113", 
        "noise_dbm": "0"
    }, 
    {
        "bssid": "00:00:00:00:00:00", 
        "source": "00:00:00:00:00:00", 
        "time_sec": 1416057411, 
        "time_usec": 504199, 
        "lat": 51.787231, 
        "lon": 19.448162, 
        "spd": 0.972, 
        "heading": 0.0, 
        "fix": 3, 
        "alt": 195.0, 
        "hdop": 0.0, 
        "vdop": 0.0, 
        "signal_rssi": 0, 
        "noise_rssi": 0, 
        "signal_dbm": "113", 
        "noise_dbm": "0"
    }, 
    {
        "bssid": "00:00:00:00:00:00", 
        "source": "00:00:00:00:00:00", 
        "time_sec": 1416057411, 
        "time_usec": 504265, 
        "lat": 51.787231, 
        "lon": 19.448162, 
        "spd": 0.972, 
        "heading": 0.0, 
        "fix": 3, 
        "alt": 195.0, 
        "hdop": 0.0, 
        "vdop": 0.0, 
        "signal_rssi": 0, 
        "noise_rssi": 0, 
        "signal_dbm": "113", 
        "noise_dbm": "0"
    }, 
    {
        "bssid": "00:00:00:00:00:00", 
        "source": "00:00:00:00:00:00", 
        "time_sec": 1416057411, 
        "time_usec": 518448, 
        "lat": 51.787231, 
        "lon": 19.448162, 
        "spd": 0.972, 
        "heading": 0.0, 
        "fix": 3, 
        "alt": 195.0, 
        "hdop": 0.0, 
        "vdop": 0.0, 
        "signal_rssi": 0, 
        "noise_rssi": 0, 
        "signal_dbm": "113", 
        "noise_dbm": "0"
    }, 
    {
        "bssid": "00:00:00:00:00:00", 
        "source": "00:00:00:00:00:00", 
        "time_sec": 1416057411, 
        "time_usec": 522238, 
        "lat": 51.787231, 
        "lon": 19.448162, 
        "spd": 0.972, 
        "heading": 0.0, 
        "fix": 3, 
        "alt": 195.0, 
        "hdop": 0.0, 
        "vdop": 0.0, 
        "signal_rssi": 0, 
        "noise_rssi": 0, 
        "signal_dbm": "113", 
        "noise_dbm": "0"
    }, 
    {
        "bssid": "00:00:00:00:00:00", 
        "source": "00:00:00:00:00:00", 
        "time_sec": 1416057411, 
        "time_usec": 523076, 
        "lat": 51.787231, 
        "lon": 19.448162, 
        "spd": 0.972, 
        "heading": 0.0, 
        "fix": 3, 
        "alt": 195.0, 
        "hdop": 0.0, 
        "vdop": 0.0, 
        "signal_rssi": 0, 
        "noise_rssi": 0, 
        "signal_dbm": "113", 
        "noise_dbm": "0"
    }, 
    {
        "bssid": "00:00:00:00:00:00", 
        "source": "00:00:00:00:00:00", 
        "time_sec": 1416057411, 
        "time_usec": 525337, 
        "lat": 51.787231, 
        "lon": 19.448162, 
        "spd": 0.972, 
        "heading": 0.0, 
        "fix": 3, 
        "alt": 195.0, 
        "hdop": 0.0, 
        "vdop": 0.0, 
        "signal_rssi": 0, 
        "noise_rssi": 0, 
        "signal_dbm": "113", 
        "noise_dbm": "0"
    }, 
    {
        "bssid": "00:00:00:00:00:00", 
        "source": "00:00:00:00:00:00", 
        "time_sec": 1416057411, 
        "time_usec": 529137, 
        "lat": 51.787231, 
        "lon": 19.448162, 
        "spd": 0.972, 
        "heading": 0.0, 
        "fix": 3, 
        "alt": 195.0, 
        "hdop": 0.0, 
        "vdop": 0.0, 
        "signal_rssi": 0, 
        "noise_rssi": 0, 
        "signal_dbm": "113", 
        "noise_dbm": "0"
    }, 
    {
        "bssid": "00:00:00:00:00:00", 
        "source": "00:00:00:00:00:00", 
        "time_sec": 1416057411, 
        "time_usec": 530750, 
        "lat": 51.787231, 
        "lon": 19.448162, 
        "spd": 0.972, 
        "heading": 0.0, 
        "fix": 3, 
        "alt": 195.0, 
        "hdop": 0.0, 
        "vdop": 0.0, 
        "signal_rssi": 0, 
        "noise_rssi": 0, 
        "signal_dbm": "113", 
        "noise_dbm": "0"
    }, 
    {
        "bssid": "00:00:00:00:00:00", 
        "source": "00:00:00:00:00:00", 
        "time_sec": 1416057411, 
        "time_usec": 541681, 
        "lat": 51.787231, 
        "lon": 19.448162, 
        "spd": 0.972, 
        "heading": 0.0, 
        "fix": 3, 
        "alt": 195.0, 
        "hdop": 0.0, 
        "vdop": 0.0, 
        "signal_rssi": 0, 
        "noise_rssi": 0, 
        "signal_dbm": "113", 
        "noise_dbm": "0"
    }, 
    {
        "bssid": "00:00:00:00:00:00", 
        "source": "00:00:00:00:00:00", 
        "time_sec": 1416057411, 
        "time_usec": 546770, 
        "lat": 51.787231, 
        "lon": 19.448162, 
        "spd": 0.972, 
        "heading": 0.0, 
        "fix": 3, 
        "alt": 195.0, 
        "hdop": 0.0, 
        "vdop": 0.0, 
        "signal_rssi": 0, 
        "noise_rssi": 0, 
        "signal_dbm": "113", 
        "noise_dbm": "0"
    }, 
    {
        "bssid": "00:00:00:00:00:00", 
        "source": "00:00:00:00:00:00", 
        "time_sec": 1416057411, 
        "time_usec": 546824, 
        "lat": 51.787231, 
        "lon": 19.448162, 
        "spd": 0.972, 
        "heading": 0.0, 
        "fix": 3, 
        "alt": 195.0, 
        "hdop": 0.0, 
        "vdop": 0.0, 
        "signal_rssi": 0, 
        "noise_rssi": 0, 
        "signal_dbm": "113", 
        "noise_dbm": "0"
    }, 
    {
        "bssid": "00:00:00:00:00:00", 
        "source": "00:00:00:00:00:00", 
        "time_sec": 1416057411, 
        "time_usec": 547334, 
        "lat": 51.787231, 
        "lon": 19.448162, 
        "spd": 0.972, 
        "heading": 0.0, 
        "fix": 3, 
        "alt": 195.0, 
        "hdop": 0.0, 
        "vdop": 0.0, 
        "signal_rssi": 0, 
        "noise_rssi": 0, 
        "signal_dbm": "113", 
        "noise_dbm": "0"
    }, 
    {
        "bssid": "00:00:00:00:00:00", 
        "source": "00:00:00:00:00:00", 
        "time_sec": 1416057411, 
        "time_usec": 551737, 
        "lat": 51.787231, 
        "lon": 19.448162, 
        "spd": 0.972, 
        "heading": 0.0, 
        "fix": 3, 
        "alt": 195.0, 
        "hdop": 0.0, 
        "vdop": 0.0, 
        "signal_rssi": 0, 
        "noise_rssi": 0, 
        "signal_dbm": "113", 
        "noise_dbm": "0"
    }, 
    {
        "bssid": "00:00:00:00:00:00", 
        "source": "00:00:00:00:00:00", 
        "time_sec": 1416057411, 
        "time_usec": 553123, 
        "lat": 51.787231, 
        "lon": 19.448162, 
        "spd": 0.972, 
        "heading": 0.0, 
        "fix": 3, 
        "alt": 195.0, 
        "hdop": 0.0, 
        "vdop": 0.0, 
        "signal_rssi": 0, 
        "noise_rssi": 0, 
        "signal_dbm": "113", 
        "noise_dbm": "0"
    }, 
    {
        "bssid": "00:00:00:00:00:00", 
        "source": "00:00:00:00:00:00", 
        "time_sec": 1416057411, 
        "time_usec": 555189, 
        "lat": 51.787231, 
        "lon": 19.448162, 
        "spd": 0.972, 
        "heading": 0.0, 
        "fix": 3, 
        "alt": 195.0, 
        "hdop": 0.0, 
        "vdop": 0.0, 
        "signal_rssi": 0, 
        "noise_rssi": 0, 
        "signal_dbm": "113", 
        "noise_dbm": "0"
    }, 
    {
        "bssid": "00:00:00:00:00:00", 
        "source": "00:00:00:00:00:00", 
        "time_sec": 1416057411, 
        "time_usec": 556805, 
        "lat": 51.787231, 
        "lon": 19.448162, 
        "spd": 0.972, 
        "heading": 0.0, 
        "fix": 3, 
        "alt": 195.0, 
        "hdop": 0.0, 
        "vdop": 0.0, 
        "signal_rssi": 0, 
        "noise_rssi": 0, 
        "signal_dbm": "113", 
        "noise_dbm": "0"
    }, 
    {
        "bssid": "00:00:00:00:00:00", 
        "source": "00:00:00:00:00:00", 
        "time_sec": 1416057411, 
        "time_usec": 564985, 
        "lat": 51.787231, 
        "lon": 19.448162, 
        "spd": 0.972, 
        "heading": 0.0, 
        "fix": 3, 
        "alt": 195.0, 
        "hdop": 0.0, 
        "vdop": 0.0, 
        "signal_rssi": 0, 
        "noise_rssi": 0, 
        "signal_dbm": "113", 
        "noise_dbm": "0"
    }, 
    {
        "bssid": "00:00:00:00:00:00", 
        "source": "00:00:00:00:00:00", 
        "time_sec": 1416057411, 
        "time_usec": 570569, 
        "lat": 51.787231, 
        "lon": 19.448162, 
        "spd": 0.972, 
        "heading": 0.0, 
        "fix": 3, 
        "alt": 195.0, 
        "hdop": 0.0, 
        "vdop": 0.0, 
        "signal_rssi": 0, 
        "noise_rssi": 0, 
        "signal_dbm": "113", 
        "noise_dbm": "0"
    }, 
    {
        "bssid": "00:00:00:00:00:00", 
        "source": "00:00:00:00:00:00", 
        "time_sec": 1416057411, 
        "time_usec": 570970, 
        "lat": 51.787231, 
        "lon": 19.448162, 
        "spd": 0.972, 
        "heading": 0.0, 
        "fix": 3, 
        "alt": 195.0, 
        "hdop": 0.0, 
        "vdop": 0.0, 
        "signal_rssi": 0, 
        "noise_rssi": 0, 
        "signal_dbm": "113", 
        "noise_dbm": "0"
    }, 
    {
        "bssid": "00:00:00:00:00:00", 
        "source": "00:00:00:00:00:00", 
        "time_sec": 1416057411, 
        "time_usec": 572410, 
        "lat": 51.787231, 
        "lon": 19.448162, 
        "spd": 0.972, 
        "heading": 0.0, 
        "fix": 3, 
        "alt": 195.0, 
        "hdop": 0.0, 
        "vdop": 0.0, 
        "signal_rssi": 0, 
        "noise_rssi": 0, 
        "signal_dbm": "113", 
        "noise_dbm": "0"
    }, 
    {
        "bssid": "00:00:00:00:00:00", 
        "source": "00:00:00:00:00:00", 
        "time_sec": 1416057411, 
        "time_usec": 575521, 
        "lat": 51.787231, 
        "lon": 19.448162, 
        "spd": 0.972, 
        "heading": 0.0, 
        "fix": 3, 
        "alt": 195.0, 
        "hdop": 0.0, 
        "vdop": 0.0, 
        "signal_rssi": 0, 
        "noise_rssi": 0, 
        "signal_dbm": "113", 
        "noise_dbm": "0"
    }, 
    {
        "bssid": "00:00:00:00:00:00", 
        "source": "00:00:00:00:00:00", 
        "time_sec": 1416057411, 
        "time_usec": 583028, 
        "lat": 51.787231, 
        "lon": 19.448162, 
        "spd": 0.972, 
        "heading": 0.0, 
        "fix": 3, 
        "alt": 195.0, 
        "hdop": 0.0, 
        "vdop": 0.0, 
        "signal_rssi": 0, 
        "noise_rssi": 0, 
        "signal_dbm": "113", 
        "noise_dbm": "0"
    }, 
    {
        "bssid": "00:00:00:00:00:00", 
        "source": "00:00:00:00:00:00", 
        "time_sec": 1416057411, 
        "time_usec": 583841, 
        "lat": 51.787231, 
        "lon": 19.448162, 
        "spd": 0.972, 
        "heading": 0.0, 
        "fix": 3, 
        "alt": 195.0, 
        "hdop": 0.0, 
        "vdop": 0.0, 
        "signal_rssi": 0, 
        "noise_rssi": 0, 
        "signal_dbm": "113", 
        "noise_dbm": "0"
    }, 
    {
        "bssid": "00:00:00:00:00:00", 
        "source": "00:00:00:00:00:00", 
        "time_sec": 1416057411, 
        "time_usec": 583894, 
        "lat": 51.787231, 
        "lon": 19.448162, 
        "spd": 0.972, 
        "heading": 0.0, 
        "fix": 3, 
        "alt": 195.0, 
        "hdop": 0.0, 
        "vdop": 0.0, 
        "signal_rssi": 0, 
        "noise_rssi": 0, 
        "signal_dbm": "113", 
        "noise_dbm": "0"
    }, 
    {
        "bssid": "00:00:00:00:00:00", 
        "source": "00:00:00:00:00:00", 
        "time_sec": 1416057411, 
        "time_usec": 585092, 
        "lat": 51.787231, 
        "lon": 19.448162, 
        "spd": 0.972, 
        "heading": 0.0, 
        "fix": 3, 
        "alt": 195.0, 
        "hdop": 0.0, 
        "vdop": 0.0, 
        "signal_rssi": 0, 
        "noise_rssi": 0, 
        "signal_dbm": "113", 
        "noise_dbm": "0"
    }, 
    {
        "bssid": "00:00:00:00:00:00", 
        "source": "00:00:00:00:00:00", 
        "time_sec": 1416057411, 
        "time_usec": 589439, 
        "lat": 51.787231, 
        "lon": 19.448162, 
        "spd": 0.972, 
        "heading": 0.0, 
        "fix": 3, 
        "alt": 195.0, 
        "hdop": 0.0, 
        "vdop": 0.0, 
        "signal_rssi": 0, 
        "noise_rssi": 0, 
        "signal_dbm": "113", 
        "noise_dbm": "0"
    }, 
    {
        "bssid": "00:00:00:00:00:00", 
        "source": "00:00:00:00:00:00", 
        "time_sec": 1416057411, 
        "time_usec": 592365, 
        "lat": 51.787231, 
        "lon": 19.448162, 
        "spd": 0.972, 
        "heading": 0.0, 
        "fix": 3, 
        "alt": 195.0, 
        "hdop": 0.0, 
        "vdop": 0.0, 
        "signal_rssi": 0, 
        "noise_rssi": 0, 
        "signal_dbm": "113", 
        "noise_dbm": "0"
    }, 
    {
        "bssid": "00:00:00:00:00:00", 
        "source": "00:00:00:00:00:00", 
        "time_sec": 1416057411, 
        "time_usec": 593249, 
        "lat": 51.787231, 
        "lon": 19.448162, 
        "spd": 0.972, 
        "heading": 0.0, 
        "fix": 3, 
        "alt": 195.0, 
        "hdop": 0.0, 
        "vdop": 0.0, 
        "signal_rssi": 0, 
        "noise_rssi": 0, 
        "signal_dbm": "113", 
        "noise_dbm": "0"
    }, 
    {
        "bssid": "00:00:00:00:00:00", 
        "source": "00:00:00:00:00:00", 
        "time_sec": 1416057411, 
        "time_usec": 601036, 
        "lat": 51.787231, 
        "lon": 19.448162, 
        "spd": 0.972, 
        "heading": 0.0, 
        "fix": 3, 
        "alt": 195.0, 
        "hdop": 0.0, 
        "vdop": 0.0, 
        "signal_rssi": 0, 
        "noise_rssi": 0, 
        "signal_dbm": "113", 
        "noise_dbm": "0"
    }, 
    {
        "bssid": "00:00:00:00:00:00", 
        "source": "00:00:00:00:00:00", 
        "time_sec": 1416057411, 
        "time_usec": 604242, 
        "lat": 51.787231, 
        "lon": 19.448162, 
        "spd": 0.972, 
        "heading": 0.0, 
        "fix": 3, 
        "alt": 195.0, 
        "hdop": 0.0, 
        "vdop": 0.0, 
        "signal_rssi": 0, 
        "noise_rssi": 0, 
        "signal_dbm": "113", 
        "noise_dbm": "0"
    }, 
    {
        "bssid": "00:00:00:00:00:00", 
        "source": "00:00:00:00:00:00", 
        "time_sec": 1416057411, 
        "time_usec": 625889, 
        "lat": 51.787231, 
        "lon": 19.448162, 
        "spd": 0.972, 
        "heading": 0.0, 
        "fix": 3, 
        "alt": 195.0, 
        "hdop": 0.0, 
        "vdop": 0.0, 
        "signal_rssi": 0, 
        "noise_rssi": 0, 
        "signal_dbm": "113", 
        "noise_dbm": "0"
    }, 
    {
        "bssid": "00:00:00:00:00:00", 
        "source": "00:00:00:00:00:00", 
        "time_sec": 1416057411, 
        "time_usec": 632634, 
        "lat": 51.787231, 
        "lon": 19.448162, 
        "spd": 0.972, 
        "heading": 0.0, 
        "fix": 3, 
        "alt": 195.0, 
        "hdop": 0.0, 
        "vdop": 0.0, 
        "signal_rssi": 0, 
        "noise_rssi": 0, 
        "signal_dbm": "113", 
        "noise_dbm": "0"
    }, 
    {
        "bssid": "00:00:00:00:00:00", 
        "source": "00:00:00:00:00:00", 
        "time_sec": 1416057411, 
        "time_usec": 639065, 
        "lat": 51.787231, 
        "lon": 19.448162, 
        "spd": 0.972, 
        "heading": 0.0, 
        "fix": 3, 
        "alt": 195.0, 
        "hdop": 0.0, 
        "vdop": 0.0, 
        "signal_rssi": 0, 
        "noise_rssi": 0, 
        "signal_dbm": "113", 
        "noise_dbm": "0"
    }, 
    {
        "bssid": "00:00:00:00:00:00", 
        "source": "00:00:00:00:00:00", 
        "time_sec": 1416057411, 
        "time_usec": 662706, 
        "lat": 51.787231, 
        "lon": 19.448162, 
        "spd": 0.972, 
        "heading": 0.0, 
        "fix": 3, 
        "alt": 195.0, 
        "hdop": 0.0, 
        "vdop": 0.0, 
        "signal_rssi": 0, 
        "noise_rssi": 0, 
        "signal_dbm": "113", 
        "noise_dbm": "0"
    }, 
    {
        "bssid": "00:00:00:00:00:00", 
        "source": "00:00:00:00:00:00", 
        "time_sec": 1416057411, 
        "time_usec": 664659, 
        "lat": 51.787231, 
        "lon": 19.448162, 
        "spd": 0.972, 
        "heading": 0.0, 
        "fix": 3, 
        "alt": 195.0, 
        "hdop": 0.0, 
        "vdop": 0.0, 
        "signal_rssi": 0, 
        "noise_rssi": 0, 
        "signal_dbm": "113", 
        "noise_dbm": "0"
    }, 
    {
        "bssid": "00:00:00:00:00:00", 
        "source": "00:00:00:00:00:00", 
        "time_sec": 1416057411, 
        "time_usec": 666904, 
        "lat": 51.787231, 
        "lon": 19.448162, 
        "spd": 0.972, 
        "heading": 0.0, 
        "fix": 3, 
        "alt": 195.0, 
        "hdop": 0.0, 
        "vdop": 0.0, 
        "signal_rssi": 0, 
        "noise_rssi": 0, 
        "signal_dbm": "113", 
        "noise_dbm": "0"
    }, 
    {
        "bssid": "00:00:00:00:00:00", 
        "source": "00:00:00:00:00:00", 
        "time_sec": 1416057411, 
        "time_usec": 667851, 
        "lat": 51.787231, 
        "lon": 19.448162, 
        "spd": 0.972, 
        "heading": 0.0, 
        "fix": 3, 
        "alt": 195.0, 
        "hdop": 0.0, 
        "vdop": 0.0, 
        "signal_rssi": 0, 
        "noise_rssi": 0, 
        "signal_dbm": "113", 
        "noise_dbm": "0"
    }, 
    {
        "bssid": "00:00:00:00:00:00", 
        "source": "00:00:00:00:00:00", 
        "time_sec": 1416057411, 
        "time_usec": 677708, 
        "lat": 51.787231, 
        "lon": 19.448162, 
        "spd": 0.972, 
        "heading": 0.0, 
        "fix": 3, 
        "alt": 195.0, 
        "hdop": 0.0, 
        "vdop": 0.0, 
        "signal_rssi": 0, 
        "noise_rssi": 0, 
        "signal_dbm": "113", 
        "noise_dbm": "0"
    }, 
    {
        "bssid": "00:00:00:00:00:00", 
        "source": "00:00:00:00:00:00", 
        "time_sec": 1416057411, 
        "time_usec": 678978, 
        "lat": 51.787231, 
        "lon": 19.448162, 
        "spd": 0.972, 
        "heading": 0.0, 
        "fix": 3, 
        "alt": 195.0, 
        "hdop": 0.0, 
        "vdop": 0.0, 
        "signal_rssi": 0, 
        "noise_rssi": 0, 
        "signal_dbm": "113", 
        "noise_dbm": "0"
    }, 
    {
        "bssid": "00:00:00:00:00:00", 
        "source": "00:00:00:00:00:00", 
        "time_sec": 1416057411, 
        "time_usec": 685112, 
        "lat": 51.787231, 
        "lon": 19.448162, 
        "spd": 0.972, 
        "heading": 0.0, 
        "fix": 3, 
        "alt": 195.0, 
        "hdop": 0.0, 
        "vdop": 0.0, 
